[
  {
    "country": "Greenland",
    "state": "(unassigned)",
    "city": "Nuuk",
    "name": "Godthaab / Nuuk Airport",
    "icao": "BGGH",
    "lat": 64.19090271,
    "lon": -51.6781005859
  },
  {
    "country": "Greenland",
    "state": "Kulusuk",
    "city": "Kulusuk",
    "name": "Kulusuk Airport",
    "icao": "BGKK",
    "lat": 65.573600769,
    "lon": -37.1236000061
  },
  {
    "country": "Greenland",
    "state": "(unassigned)",
    "city": "Ilulissat",
    "name": "Ilulissat Airport",
    "icao": "BGJN",
    "lat": 69.2432022095,
    "lon": -51.0570983887
  },
  {
    "country": "Greenland",
    "state": "Uummannaq",
    "city": "Uummannaq",
    "name": "Qaarsut Airport",
    "icao": "BGUQ",
    "lat": 70.7341995239,
    "lon": -52.6962013245
  },
  {
    "country": "Greenland",
    "state": "Nanortalik",
    "city": "Nanortalik",
    "name": "Nanortalik Heliport",
    "icao": "BGNN",
    "lat": 60.1418839758999,
    "lon": -45.232976675
  },
  {
    "country": "Greenland",
    "state": "Station Nord",
    "city": "Station Nord",
    "name": "Station Nord Heliport",
    "icao": "BGNO",
    "lat": 81.6978444497,
    "lon": -17.8088378906
  },
  {
    "country": "Greenland",
    "state": "Station Nord",
    "city": "Station Nord",
    "name": "Station Nord Landing Strip",
    "icao": "BGMI",
    "lat": 81.6,
    "lon": -16.6666666667
  },
  {
    "country": "Greenland",
    "state": "Camp Tuto",
    "city": "Camp Tuto",
    "name": "Camp Tuto Airport",
    "icao": "GL-0008",
    "lat": 76.4288,
    "lon": -68.3378
  },
  {
    "country": "Greenland",
    "state": "Nalunaq",
    "city": "Nalunaq",
    "name": "Nalunaq Heliport",
    "icao": "BGNL",
    "lat": 60.3572400194,
    "lon": -44.8279631138
  },
  {
    "country": "Greenland",
    "state": "Pituffik",
    "city": "Pituffik",
    "name": "Dundas Airport",
    "icao": "BGDU",
    "lat": 76.525,
    "lon": -68.8
  },
  {
    "country": "Greenland",
    "state": "Iginniarfik",
    "city": "Iginniarfik",
    "name": "Iginniarfik Heliport",
    "icao": "GL-QFI",
    "lat": 68.699997,
    "lon": -52.966702
  },
  {
    "country": "Greenland",
    "state": "Groennedal",
    "city": "Groennedal",
    "name": "Groennedal Heliport",
    "icao": "GL-JGR",
    "lat": 61.233299,
    "lon": -48.099998
  },
  {
    "country": "Greenland",
    "state": "Ikamiut",
    "city": "Ikamiut",
    "name": "Ikamiut Heliport",
    "icao": "BGIT",
    "lat": 68.6342530984,
    "lon": -51.8322622776
  },
  {
    "country": "Greenland",
    "state": "Ilimanaq",
    "city": "Ilimanaq",
    "name": "Ilimanaq Heliport",
    "icao": "BGIL",
    "lat": 69.0809150007,
    "lon": -51.1143153906
  },
  {
    "country": "Greenland",
    "state": "Kangaatsiaq",
    "city": "Kangaatsiaq",
    "name": "Kangaatsiaq Heliport",
    "icao": "BGKA",
    "lat": 68.3126574861,
    "lon": -53.4602075815
  },
  {
    "country": "Greenland",
    "state": "Narsaq",
    "city": "Narsaq",
    "name": "Narsaq Heliport",
    "icao": "BGNS",
    "lat": 60.9172827256,
    "lon": -46.059923172
  },
  {
    "country": "Greenland",
    "state": "Paamiut",
    "city": "Paamiut",
    "name": "Paamiut Heliport",
    "icao": "BGFH",
    "lat": 61.9921989441,
    "lon": -49.6624984741
  },
  {
    "country": "Greenland",
    "state": "Qeqertarsuaq Airport",
    "city": "Qeqertarsuaq Airport",
    "name": "Qeqertarsuaq Heliport",
    "icao": "BGGN",
    "lat": 69.251181993,
    "lon": -53.5148763657
  },
  {
    "country": "Greenland",
    "state": "Neerlerit Inaat",
    "city": "Neerlerit Inaat",
    "name": "Neerlerit Inaat Airport",
    "icao": "BGCO",
    "lat": 70.7431030273,
    "lon": -22.6504993439
  },
  {
    "country": "Greenland",
    "state": "Upernavik",
    "city": "Upernavik",
    "name": "Upernavik Airport",
    "icao": "BGUK",
    "lat": 72.7901992798,
    "lon": -56.1305999756
  },
  {
    "country": "Greenland",
    "state": "Qaasuitsup",
    "city": "Qaasuitsup",
    "name": "Aappilattoq (Qaasuitsup) Heliport",
    "icao": "BGAG",
    "lat": 72.88703,
    "lon": -55.596287
  },
  {
    "country": "Greenland",
    "state": "Uummannaq",
    "city": "Uummannaq",
    "name": "Uummannaq Heliport",
    "icao": "BGUM",
    "lat": 70.6804279261,
    "lon": -52.1116304397999
  },
  {
    "country": "Greenland",
    "state": "(unassigned)",
    "city": "Mestersvig",
    "name": "Mestersvig Airport",
    "icao": "BGMV",
    "lat": 72.2369003296,
    "lon": -23.9319000243999
  },
  {
    "country": "Greenland",
    "state": "(unassigned)",
    "city": "Attu",
    "name": "Attu Heliport",
    "icao": "BGAT",
    "lat": 67.9406628551,
    "lon": -53.6218696833
  },
  {
    "country": "Greenland",
    "state": "North Grip",
    "city": "North Grip Ice Landingstrip",
    "name": "North Grip Ice Landingstrip",
    "icao": "GL-0003",
    "lat": 75.0999984741211,
    "lon": -42.316665649414
  },
  {
    "country": "Greenland",
    "state": "Summit",
    "city": "Summit Ice Landingstrip",
    "name": "Summit Ice Landingstrip",
    "icao": "GL-0006",
    "lat": 72.6166687011718,
    "lon": -38.5
  },
  {
    "country": "Greenland",
    "state": "Moriusaq Heliport",
    "city": "Moriusaq Heliport",
    "name": "Moriusaq Heliport",
    "icao": "bgmo",
    "lat": 76.7534922147,
    "lon": -69.8450553417
  },
  {
    "country": "Greenland",
    "state": "Saarloq",
    "city": "Saarloq",
    "name": "Saarloq Heliport",
    "icao": "BGSO",
    "lat": 60.537778,
    "lon": -46.024722
  },
  {
    "country": "Greenland",
    "state": "Kraulshavn Icestrip",
    "city": "Kraulshavn Icestrip",
    "name": "Kraulshavn Icestrip",
    "icao": "GL-0009",
    "lat": 74.10251,
    "lon": -57.40493
  },
  {
    "country": "Greenland",
    "state": "(unassigned)",
    "city": "Arsuk",
    "name": "Arsuk Heliport",
    "icao": "BGAR",
    "lat": 61.176771,
    "lon": -48.41972
  },
  {
    "country": "Greenland",
    "state": "(unassigned)",
    "city": "Igaliku",
    "name": "Igaliku Heliport",
    "icao": "qfx",
    "lat": 60.9920065221,
    "lon": -45.4323345423
  },
  {
    "country": "Greenland",
    "state": "(unassigned)",
    "city": "Ikerasassuaq",
    "name": "Ikerasassuaq Heliport",
    "icao": "BGPC",
    "lat": 60.0572204589843,
    "lon": -43.1597213745117
  },
  {
    "country": "Greenland",
    "state": "(unassigned)",
    "city": "Ittoqqortoormiit",
    "name": "Sermiligaaq Heliport",
    "icao": "BGSG",
    "lat": 65.9059197626,
    "lon": -36.3782536983
  },
  {
    "country": "Greenland",
    "state": "(unassigned)",
    "city": "Kangilinnguit",
    "name": "Kangilinnguit Heliport",
    "icao": "BGGD",
    "lat": 61.2214781863,
    "lon": -48.1109654903
  },
  {
    "country": "Greenland",
    "state": "(unassigned)",
    "city": "Kullorsuaq",
    "name": "Kullorsuaq Heliport",
    "icao": "BGKQ",
    "lat": 74.57805,
    "lon": -57.226828
  },
  {
    "country": "Greenland",
    "state": "(unassigned)",
    "city": "Kuummiut",
    "name": "Kuummiut Heliport",
    "icao": "BGKM",
    "lat": 65.863935,
    "lon": -36.997919
  },
  {
    "country": "Greenland",
    "state": "(unassigned)",
    "city": "Nanortalik",
    "name": "Tasiusaq (Kujalleq) Heliport",
    "icao": "BGTQ",
    "lat": 60.1943053097,
    "lon": -44.8134469986
  },
  {
    "country": "Greenland",
    "state": "(unassigned)",
    "city": "Narsaq Kujalleq",
    "name": "Narsaq Kujalleq Heliport",
    "icao": "BGFD",
    "lat": 60.004694,
    "lon": -44.656935
  },
  {
    "country": "Greenland",
    "state": "(unassigned)",
    "city": "Nuussuaq",
    "name": "Nuussuaq Heliport",
    "icao": "BGNU",
    "lat": 74.109853,
    "lon": -57.065037
  },
  {
    "country": "Greenland",
    "state": "(unassigned)",
    "city": "Qeqertaq",
    "name": "Qeqertaq Heliport",
    "icao": "BGQE",
    "lat": 69.9958611087,
    "lon": -51.3009166718
  },
  {
    "country": "Greenland",
    "state": "(unassigned)",
    "city": "Saattut",
    "name": "Saattut Heliport",
    "icao": "BGST",
    "lat": 70.811172,
    "lon": -51.63129
  },
  {
    "country": "Greenland",
    "state": "(unassigned)",
    "city": "Sodalen",
    "name": "SÃ¸dalen Landingstrip",
    "icao": "GL-0005",
    "lat": 68.1666641235351,
    "lon": -31.5166664123535
  },
  {
    "country": "Greenland",
    "state": "(unassigned)",
    "city": "Tasiilaq",
    "name": "Tasiilaq Heliport",
    "icao": "BGAM",
    "lat": 65.612296,
    "lon": -37.618335
  },
  {
    "country": "Greenland",
    "state": "(unassigned)",
    "city": "Ukkusissat",
    "name": "Ukkusissat Heliport",
    "icao": "BGUT",
    "lat": 71.049438,
    "lon": -51.890016
  },
  {
    "country": "Greenland",
    "state": "(unassigned)",
    "city": "Upernavik",
    "name": "Tasiusaq (Qaasuitsup) Heliport",
    "icao": "BGTA",
    "lat": 73.373055,
    "lon": -56.06028
  },
  {
    "country": "Greenland",
    "state": "(unassigned)",
    "city": "Zackenberg",
    "name": "Zackenberg",
    "icao": "GL-0007",
    "lat": 74.4666671752929,
    "lon": -20.6000003814697
  }
]