[
  {
    "country": "India",
    "state": "Maharashtra",
    "city": "Mumbai",
    "name": "Chhatrapati Shivaji International Airport",
    "icao": "VABB",
    "lat": 19.0886993408,
    "lon": 72.8678970337
  },
  {
    "country": "India",
    "state": "Tamil Nadu",
    "city": "Chennai",
    "name": "Chennai International Airport",
    "icao": "VOMM",
    "lat": 12.990005493164,
    "lon": 80.1692962646484
  },
  {
    "country": "India",
    "state": "Karnataka",
    "city": "Bangalore",
    "name": "Kempegowda International Airport",
    "icao": "VOBL",
    "lat": 13.1979,
    "lon": 77.706299
  },
  {
    "country": "India",
    "state": "Goa",
    "city": "Vasco da Gama",
    "name": "Dabolim Airport",
    "icao": "VAGO",
    "lat": 15.3808002472,
    "lon": 73.8313980103
  },
  {
    "country": "India",
    "state": "West Bengal",
    "city": "Kolkata",
    "name": "Netaji Subhash Chandra Bose International Airport",
    "icao": "VECC",
    "lat": 22.6546993255615,
    "lon": 88.4467010498046
  },
  {
    "country": "India",
    "state": "Kerala",
    "city": "Kochi",
    "name": "Cochin International Airport",
    "icao": "VOCI",
    "lat": 10.152,
    "lon": 76.401901
  },
  {
    "country": "India",
    "state": "Telangana",
    "city": "Hyderabad",
    "name": "Rajiv Gandhi International Airport",
    "icao": "VOHS",
    "lat": 17.231318,
    "lon": 78.429855
  },
  {
    "country": "India",
    "state": "Kerala",
    "city": "Thiruvananthapuram",
    "name": "Trivandrum International Airport",
    "icao": "VOTV",
    "lat": 8.48211956024,
    "lon": 76.9200973511
  },
  {
    "country": "India",
    "state": "Karnataka",
    "city": "Bangalore",
    "name": "HAL Airport",
    "icao": "VOBG",
    "lat": 12.9499998093,
    "lon": 77.6681976318
  },
  {
    "country": "India",
    "state": "Punjab",
    "city": "Amritsar",
    "name": "Sri Guru Ram Dass Jee International Airport",
    "icao": "VIAR",
    "lat": 31.7096004486,
    "lon": 74.7973022461
  },
  {
    "country": "India",
    "state": "Gujarat",
    "city": "Vadodara",
    "name": "Vadodara Airport",
    "icao": "VABO",
    "lat": 22.336201,
    "lon": 73.226303
  },
  {
    "country": "India",
    "state": "Assam",
    "city": "Guwahati",
    "name": "Lokpriya Gopinath Bordoloi International Airport",
    "icao": "VEGT",
    "lat": 26.1061000823974,
    "lon": 91.5858993530273
  },
  {
    "country": "India",
    "state": "Telangana",
    "city": "Hyderabad",
    "name": "Begumpet Airport",
    "icao": "VOHY",
    "lat": 17.4531002045,
    "lon": 78.4675979614
  },
  {
    "country": "India",
    "state": "Andhra Pradesh",
    "city": "Visakhapatnam",
    "name": "Vishakhapatnam Airport",
    "icao": "VEVZ",
    "lat": 17.721201,
    "lon": 83.224503
  },
  {
    "country": "India",
    "state": "Bihar",
    "city": "Patna",
    "name": "Lok Nayak Jayaprakash Airport",
    "icao": "VEPT",
    "lat": 25.591299057,
    "lon": 85.0879974365
  },
  {
    "country": "India",
    "state": "Uttar Pradesh",
    "city": "Varanasi",
    "name": "Lal Bahadur Shastri Airport",
    "icao": "VIBN",
    "lat": 25.4524,
    "lon": 82.859299
  },
  {
    "country": "India",
    "state": "Odisha",
    "city": "Bhubaneswar",
    "name": "Biju Patnaik Airport",
    "icao": "VEBS",
    "lat": 20.2444000243999,
    "lon": 85.8178024292
  },
  {
    "country": "India",
    "state": "Madhya Pradesh",
    "city": "Indore",
    "name": "Devi Ahilyabai Holkar Airport",
    "icao": "VAID",
    "lat": 22.7217998505,
    "lon": 75.8011016846
  },
  {
    "country": "India",
    "state": "Tamil Nadu",
    "city": "Madurai",
    "name": "Madurai Airport",
    "icao": "VOMD",
    "lat": 9.83450984955,
    "lon": 78.0933990479
  },
  {
    "country": "India",
    "state": "West Bengal",
    "city": "Siliguri",
    "name": "Bagdogra Airport",
    "icao": "VEBD",
    "lat": 26.6812000274658,
    "lon": 88.3285980224609
  },
  {
    "country": "India",
    "state": "Gujarat",
    "city": "Gujarat",
    "name": "Surat Airport",
    "icao": "VASU",
    "lat": 21.1140995026,
    "lon": 72.7417984009
  },
  {
    "country": "India",
    "state": "Andaman and Nicobar Islands",
    "city": "Port Blair",
    "name": "Vir Savarkar International Airport",
    "icao": "VOPB",
    "lat": 11.6412000656127,
    "lon": 92.7296981811523
  },
  {
    "country": "India",
    "state": "Maharashtra",
    "city": "Nagpur",
    "name": "Dr. Babasaheb Ambedkar International Airport",
    "icao": "VANP",
    "lat": 21.092199,
    "lon": 79.047203
  },
  {
    "country": "India",
    "state": "Rajasthan",
    "city": "Udaipur",
    "name": "Maharana Pratap Airport",
    "icao": "VAUD",
    "lat": 24.6177005767999,
    "lon": 73.8961029053
  },
  {
    "country": "India",
    "state": "Chhattisgarh",
    "city": "Raipur",
    "name": "Raipur Airport",
    "icao": "VARP",
    "lat": 21.180401,
    "lon": 81.7388
  },
  {
    "country": "India",
    "state": "Maharashtra",
    "city": "Aurangabad",
    "name": "Aurangabad Airport",
    "icao": "VAAU",
    "lat": 19.8626995086669,
    "lon": 75.3981018066406
  },
  {
    "country": "India",
    "state": "Gujarat",
    "city": "Bhuj",
    "name": "Bhuj Airport",
    "icao": "VABJ",
    "lat": 23.2877998352,
    "lon": 69.6701965332
  },
  {
    "country": "India",
    "state": "Tripura",
    "city": "Agartala",
    "name": "Agartala Airport",
    "icao": "VEAT",
    "lat": 23.8869991302,
    "lon": 91.2404022217
  },
  {
    "country": "India",
    "state": "Assam",
    "city": "Jorhat",
    "name": "Jorhat Airport",
    "icao": "VEJT",
    "lat": 26.7315006256,
    "lon": 94.1754989624
  },
  {
    "country": "India",
    "state": "Himachal Pradesh",
    "city": "Himachal Pradesh",
    "name": "Kullu Manali Airport",
    "icao": "VIBR",
    "lat": 31.8766994476318,
    "lon": 77.1544036865234
  },
  {
    "country": "India",
    "state": "Bihar",
    "city": "Bihar",
    "name": "Darbhanga Airport",
    "icao": "VE89",
    "lat": 26.1928005218505,
    "lon": 85.9169006347656
  },
  {
    "country": "India",
    "state": "Gujarat",
    "city": "Rajkot",
    "name": "Rajkot Airport",
    "icao": "VARK",
    "lat": 22.3092002869,
    "lon": 70.7795028686999
  },
  {
    "country": "India",
    "state": "Manipur",
    "city": "Imphal",
    "name": "Imphal Airport",
    "icao": "VEIM",
    "lat": 24.7600002289,
    "lon": 93.896697998
  },
  {
    "country": "India",
    "state": "Jammu and Kashmir",
    "city": "Leh",
    "name": "Leh Kushok Bakula Rimpochee Airport",
    "icao": "VILH",
    "lat": 34.1358985901,
    "lon": 77.5465011597
  },
  {
    "country": "India",
    "state": "Madhya Pradesh",
    "city": "Khajuraho",
    "name": "Khajuraho Airport",
    "icao": "VAKJ",
    "lat": 24.817199707,
    "lon": 79.9186019897
  },
  {
    "country": "India",
    "state": "Himachal Pradesh",
    "city": "Himachal Pradesh",
    "name": "Shimla Airport",
    "icao": "VISM",
    "lat": 31.0818,
    "lon": 77.068001
  },
  {
    "country": "India",
    "state": "Uttar Pradesh",
    "city": "Allahabad",
    "name": "Allahabad Airport",
    "icao": "VIAL",
    "lat": 25.4401,
    "lon": 81.733902
  },
  {
    "country": "India",
    "state": "West Bengal",
    "city": "West Bengal",
    "name": "Kalaikunda Air Force Station",
    "icao": "VEDX",
    "lat": 22.339500427246,
    "lon": 87.2145004272461
  },
  {
    "country": "India",
    "state": "Kerala",
    "city": "Kannur",
    "name": "Kannur International Airport",
    "icao": "VOKN",
    "lat": 11.918614,
    "lon": 75.547211
  },
  {
    "country": "India",
    "state": "Tamil Nadu",
    "city": "Tiruchirappally",
    "name": "Tiruchirapally Civil Airport Airport",
    "icao": "VOTR",
    "lat": 10.7653999328613,
    "lon": 78.7097015380859
  },
  {
    "country": "India",
    "state": "Jammu and Kashmir",
    "city": "Jammu",
    "name": "Jammu Airport",
    "icao": "VIJU",
    "lat": 32.689098,
    "lon": 74.837402
  },
  {
    "country": "India",
    "state": "Gujarat",
    "city": "Bhavnagar",
    "name": "Bhavnagar Airport",
    "icao": "VABV",
    "lat": 21.752199173,
    "lon": 72.1852035522
  },
  {
    "country": "India",
    "state": "Madhya Pradesh",
    "city": "Madhya Pradesh",
    "name": "Jabalpur Airport",
    "icao": "VAJB",
    "lat": 23.1777992248535,
    "lon": 80.052001953125
  },
  {
    "country": "India",
    "state": "Assam",
    "city": "Assam",
    "name": "Tezpur Airport",
    "icao": "VETZ",
    "lat": 26.7091007232666,
    "lon": 92.7846984863281
  },
  {
    "country": "India",
    "state": "Uttaranchal",
    "city": "Dehradun",
    "name": "Dehradun Airport",
    "icao": "VIDN",
    "lat": 30.189699,
    "lon": 78.180298
  },
  {
    "country": "India",
    "state": "Maharashtra",
    "city": "Nashik",
    "name": "Gandhinagar Airport",
    "icao": "VANR",
    "lat": 19.9636993408,
    "lon": 73.8076019287
  },
  {
    "country": "India",
    "state": "Gujarat",
    "city": "Porbandar",
    "name": "Porbandar Airport",
    "icao": "VAPR",
    "lat": 21.6487007141,
    "lon": 69.6572036742999
  },
  {
    "country": "India",
    "state": "Gujarat",
    "city": "Diu",
    "name": "Diu Airport",
    "icao": "VA1P",
    "lat": 20.7131004333496,
    "lon": 70.9210968017578
  },
  {
    "country": "India",
    "state": "Odisha",
    "city": "Odisha",
    "name": "Rourkela Airport",
    "icao": "VERK",
    "lat": 22.256701,
    "lon": 84.814598
  },
  {
    "country": "India",
    "state": "Punjab",
    "city": "Punjab",
    "name": "Bhatinda Air Force Station",
    "icao": "VIBT",
    "lat": 30.2700996398925,
    "lon": 74.7557983398437
  },
  {
    "country": "India",
    "state": "Karnataka",
    "city": "Karnataka",
    "name": "Bidar Air Force Station",
    "icao": "VOBR",
    "lat": 17.9081,
    "lon": 77.487099
  },
  {
    "country": "India",
    "state": "Karnataka",
    "city": "Bellary",
    "name": "Bellary Airport",
    "icao": "VOBI",
    "lat": 15.162799835205,
    "lon": 76.8827972412109
  },
  {
    "country": "India",
    "state": "Jharkhand",
    "city": "Jamshedpur",
    "name": "Sonari Airport",
    "icao": "VEJS",
    "lat": 22.8132,
    "lon": 86.1688
  },
  {
    "country": "India",
    "state": "Rajasthan",
    "city": "Kota",
    "name": "Kota Airport",
    "icao": "VIKO",
    "lat": 25.160200119,
    "lon": 75.8455963135
  },
  {
    "country": "India",
    "state": "Punjab",
    "city": "Pathankot",
    "name": "Pathankot Airport",
    "icao": "VIPK",
    "lat": 32.233611,
    "lon": 75.634444
  },
  {
    "country": "India",
    "state": "Gujarat",
    "city": "Gujarat",
    "name": "Raedhanpur Airport",
    "icao": "VA1K",
    "lat": 23.2222995758056,
    "lon": 68.8912963867187
  },
  {
    "country": "India",
    "state": "Bihar",
    "city": "Bihar",
    "name": "Bokaro Airport",
    "icao": "VEBK",
    "lat": 23.6434993743896,
    "lon": 86.1489028930664
  },
  {
    "country": "India",
    "state": "Punjab",
    "city": "Punjab",
    "name": "Patiala Airport",
    "icao": "VIPL",
    "lat": 30.3148002624511,
    "lon": 76.364501953125
  },
  {
    "country": "India",
    "state": "Rajasthan",
    "city": "Rajasthan",
    "name": "Uttarlai Airport",
    "icao": "VIUT",
    "lat": 25.8129997253417,
    "lon": 71.4822998046875
  },
  {
    "country": "India",
    "state": "Telangana",
    "city": "Telangana",
    "name": "Hakimpet Airport",
    "icao": "VOHK",
    "lat": 17.5534992218,
    "lon": 78.5249023438
  },
  {
    "country": "India",
    "state": "Karnataka",
    "city": "Mysore",
    "name": "Mysore Airport",
    "icao": "VOMY",
    "lat": 12.23,
    "lon": 76.655833
  },
  {
    "country": "India",
    "state": "Madhya Pradesh",
    "city": "Rewa",
    "name": "Rewa Airport, Chorhata, REWA",
    "icao": "VA1G",
    "lat": 24.503401,
    "lon": 81.220299
  },
  {
    "country": "India",
    "state": "Tamil Nadu",
    "city": "Sulur",
    "name": "Coimbatore Air Force Station",
    "icao": "VOSX",
    "lat": 11.0136003494262,
    "lon": 77.1596984863281
  },
  {
    "country": "India",
    "state": "Jharkhand",
    "city": "Jharkhand",
    "name": "Deoghar Airstrip",
    "icao": "IN-0090",
    "lat": 24.44666667,
    "lon": 86.70694444
  },
  {
    "country": "India",
    "state": "Kerala",
    "city": "Kerala",
    "name": "Perunad Helipad",
    "icao": "IN-0095",
    "lat": 9.3539,
    "lon": 76.86489
  },
  {
    "country": "India",
    "state": "Gujarat",
    "city": "Amreli",
    "name": "Amreli Airstrip",
    "icao": "IN-0023",
    "lat": 21.6198508623,
    "lon": 71.2233352661
  },
  {
    "country": "India",
    "state": "Bihar",
    "city": "Bhagalpur",
    "name": "Bhagalpur Airport",
    "icao": "IN-0077",
    "lat": 25.249359,
    "lon": 87.009779
  },
  {
    "country": "India",
    "state": "Karnataka",
    "city": "Koppal",
    "name": "Koppal Aerodrome",
    "icao": "VOKP",
    "lat": 15.3591003417968,
    "lon": 76.2192993164062
  },
  {
    "country": "India",
    "state": "Maharashtra",
    "city": "Maharashtra",
    "name": "Kolhapur Airport",
    "icao": "VAKP",
    "lat": 16.6646995544,
    "lon": 74.2893981934
  },
  {
    "country": "India",
    "state": "Uttar Pradesh",
    "city": "Kanpur",
    "name": "Kanpur Civil Airport",
    "icao": "VIKA",
    "lat": 26.441401,
    "lon": 80.364899
  },
  {
    "country": "India",
    "state": "Meghalaya",
    "city": "Shillong",
    "name": "Shillong Airport",
    "icao": "VEBI",
    "lat": 25.7035999298095,
    "lon": 91.9786987304687
  },
  {
    "country": "India",
    "state": "Daman and Diu",
    "city": "Daman and Diu",
    "name": "Daman Airport",
    "icao": "VADN",
    "lat": 20.4344005584716,
    "lon": 72.8432006835937
  },
  {
    "country": "India",
    "state": "Maharashtra",
    "city": "Maharashtra",
    "name": "Ratnagiri Airport",
    "icao": "VARG",
    "lat": 17.013599,
    "lon": 73.327797
  },
  {
    "country": "India",
    "state": "Bihar",
    "city": "Bihar",
    "name": "Dhanbad Airport",
    "icao": "VEDB",
    "lat": 23.833999633789,
    "lon": 86.4253005981445
  },
  {
    "country": "India",
    "state": "Bihar",
    "city": "Bihar",
    "name": "Muzaffarpur Airport",
    "icao": "VEMZ",
    "lat": 26.1191005706787,
    "lon": 85.3136978149414
  },
  {
    "country": "India",
    "state": "Delhi",
    "city": "Delhi",
    "name": "Safdarjung Airport",
    "icao": "VIDD",
    "lat": 28.5844993591308,
    "lon": 77.2058029174804
  },
  {
    "country": "India",
    "state": "Rajasthan",
    "city": "Rajasthan",
    "name": "Jaisalmer Airport",
    "icao": "VIJR",
    "lat": 26.8887004852294,
    "lon": 70.8649978637695
  },
  {
    "country": "India",
    "state": "Haryana",
    "city": "Haryana",
    "name": "Sirsa Air Force Station",
    "icao": "VISA",
    "lat": 29.5606002807617,
    "lon": 75.006103515625
  },
  {
    "country": "India",
    "state": "Andaman and Nicobar Islands",
    "city": "Andaman and Nicobar Islands",
    "name": "Car Nicobar Air Force Station",
    "icao": "VOCX",
    "lat": 9.15250968933105,
    "lon": 92.8196029663086
  },
  {
    "country": "India",
    "state": "Maharashtra",
    "city": "Akola",
    "name": "Akola Airport",
    "icao": "VAAK",
    "lat": 20.698999,
    "lon": 77.058601
  },
  {
    "country": "India",
    "state": "Rajasthan",
    "city": "Bikaner",
    "name": "Nal Airport",
    "icao": "VIBK",
    "lat": 28.0706005096435,
    "lon": 73.2071990966796
  },
  {
    "country": "India",
    "state": "West Bengal",
    "city": "Jalpaiguri",
    "name": "Hashimara Air Force Station",
    "icao": "VE44",
    "lat": 26.6982994079589,
    "lon": 89.3691024780273
  },
  {
    "country": "India",
    "state": "Andhra Pradesh",
    "city": "Kadapa",
    "name": "Kadapa Airport",
    "icao": "VOCP",
    "lat": 14.51,
    "lon": 78.772778
  },
  {
    "country": "India",
    "state": "Uttar Pradesh",
    "city": "Pantnagar",
    "name": "Pantnagar Airport",
    "icao": "VIPT",
    "lat": 29.0334,
    "lon": 79.473701
  },
  {
    "country": "India",
    "state": "Tamil Nadu",
    "city": "Salem",
    "name": "Salem Airport",
    "icao": "VOSM",
    "lat": 11.78330039978,
    "lon": 78.06559753418
  },
  {
    "country": "India",
    "state": "Arunachal Pradesh",
    "city": "Ziro",
    "name": "Ziro Airport",
    "icao": "VEZO",
    "lat": 27.588301,
    "lon": 93.828102
  },
  {
    "country": "India",
    "state": "Madhya Pradesh",
    "city": "Madhya Pradesh",
    "name": "Birlagram Airport",
    "icao": "VA1C",
    "lat": 23.4468994140625,
    "lon": 75.4203033447265
  },
  {
    "country": "India",
    "state": "Madhya Pradesh",
    "city": "Madhya Pradesh",
    "name": "Sidhi Airport",
    "icao": "VA1F",
    "lat": 24.4022998809814,
    "lon": 81.8147964477539
  },
  {
    "country": "India",
    "state": "Madhya Pradesh",
    "city": "Madhya Pradesh",
    "name": "Dhana Airport",
    "icao": "VA1J",
    "lat": 23.7535991668701,
    "lon": 78.8557968139648
  },
  {
    "country": "India",
    "state": "Maharashtra",
    "city": "Maharashtra",
    "name": "Karad Airport",
    "icao": "VA1M",
    "lat": 17.2859001159667,
    "lon": 74.1580963134765
  },
  {
    "country": "India",
    "state": "Madhya Pradesh",
    "city": "Madhya Pradesh",
    "name": "Burhar Airport",
    "icao": "VA1O",
    "lat": 23.235200881958,
    "lon": 81.5037002563476
  },
  {
    "country": "India",
    "state": "Uttar Pradesh",
    "city": "Uttar Pradesh",
    "name": "Meerut Sw Airport",
    "icao": "VA2B",
    "lat": 28.9048995971679,
    "lon": 77.6772994995117
  },
  {
    "country": "India",
    "state": "Rajasthan",
    "city": "Rajasthan",
    "name": "Sirohi Airport",
    "icao": "IN-VA38",
    "lat": 24.8950996398925,
    "lon": 72.8459014892578
  },
  {
    "country": "India",
    "state": "Maharashtra",
    "city": "Maharashtra",
    "name": "Dhulia Airport",
    "icao": "IN-VA53",
    "lat": 20.9265,
    "lon": 74.737099
  },
  {
    "country": "India",
    "state": "West Bengal",
    "city": "West Bengal",
    "name": "Burnpur Airport",
    "icao": "VE23",
    "lat": 23.6315002441406,
    "lon": 86.9755020141601
  },
  {
    "country": "India",
    "state": "Bihar",
    "city": "Bihar",
    "name": "Giridih Airport",
    "icao": "VE41",
    "lat": 24.2019004821777,
    "lon": 86.2898025512695
  },
  {
    "country": "India",
    "state": "Odisha",
    "city": "Odisha",
    "name": "Cuttack Airport",
    "icao": "VE62",
    "lat": 20.5496006011962,
    "lon": 85.8862991333007
  },
  {
    "country": "India",
    "state": "Arunachal Pradesh",
    "city": "Arunachal Pradesh",
    "name": "Vijaynagar Advanced Landing Ground",
    "icao": "VE91",
    "lat": 27.1935997009,
    "lon": 97.0037002563
  },
  {
    "country": "India",
    "state": "Haryana",
    "city": "Haryana",
    "name": "Bhilwara Airport",
    "icao": "VI20",
    "lat": 28.0771007537841,
    "lon": 76.2050018310546
  },
  {
    "country": "India",
    "state": "Rajasthan",
    "city": "Rajasthan",
    "name": "Suratgarh New Airport",
    "icao": "VI43",
    "lat": 29.3878002166748,
    "lon": 73.9039001464843
  },
  {
    "country": "India",
    "state": "Jammu and Kashmir",
    "city": "Jammu and Kashmir",
    "name": "Kargil Airport",
    "icao": "VI65",
    "lat": 34.5242996216,
    "lon": 76.1558990479
  },
  {
    "country": "India",
    "state": "Rajasthan",
    "city": "Rajasthan",
    "name": "Jhunjhunu Airport",
    "icao": "VI69",
    "lat": 28.1067008972167,
    "lon": 75.3756027221679
  },
  {
    "country": "India",
    "state": "Haryana",
    "city": "Haryana",
    "name": "Kalka Airport",
    "icao": "VI71",
    "lat": 30.8245697021484,
    "lon": 76.8836517333984
  },
  {
    "country": "India",
    "state": "Madhya Pradesh",
    "city": "Madhya Pradesh",
    "name": "Band Tal Airport",
    "icao": "VI76",
    "lat": 26.0000991821289,
    "lon": 78.2618026733398
  },
  {
    "country": "India",
    "state": "Punjab",
    "city": "Punjab",
    "name": "Jallowal Airport",
    "icao": "VI88",
    "lat": 31.5599994659423,
    "lon": 75.3413009643554
  },
  {
    "country": "India",
    "state": "Tamil Nadu",
    "city": "Tamil Nadu",
    "name": "Kovilpatti Airport",
    "icao": "VO26",
    "lat": 9.15388965606689,
    "lon": 77.8211975097656
  },
  {
    "country": "India",
    "state": "Tamil Nadu",
    "city": "Tamil Nadu",
    "name": "Hosur Airport",
    "icao": "VO95",
    "lat": 12.6612997055053,
    "lon": 77.7671966552734
  },
  {
    "country": "India",
    "state": "Odisha",
    "city": "Odisha",
    "name": "Jharsuguda Airport",
    "icao": "VEJH",
    "lat": 21.9135,
    "lon": 84.0504
  },
  {
    "country": "India",
    "state": "Odisha",
    "city": "Odisha",
    "name": "Utkela Airport",
    "icao": "VEUK",
    "lat": 20.0974006652832,
    "lon": 83.1837997436523
  },
  {
    "country": "India",
    "state": "Uttar Pradesh",
    "city": "Uttar Pradesh",
    "name": "Pithorgarh Airport",
    "icao": "VIDF",
    "lat": 29.593599319458,
    "lon": 80.2391967773437
  },
  {
    "country": "India",
    "state": "Punjab",
    "city": "Punjab",
    "name": "Halwara Air Force Station",
    "icao": "VIHX",
    "lat": 30.7485008239746,
    "lon": 75.6297988891601
  },
  {
    "country": "India",
    "state": "Uttar Pradesh",
    "city": "Uttar Pradesh",
    "name": "Sarsawa Air Force Station",
    "icao": "VISP",
    "lat": 29.9939002990722,
    "lon": 77.4253005981445
  },
  {
    "country": "India",
    "state": "Tripura",
    "city": "Tripura",
    "name": "Kamalpur Airport",
    "icao": "VEKM",
    "lat": 24.131700515747,
    "lon": 91.8142013549804
  },
  {
    "country": "India",
    "state": "Mizoram",
    "city": "Aizawl",
    "name": "Lengpui Airport",
    "icao": "VELP",
    "lat": 23.8405990600999,
    "lon": 92.6196975708
  },
  {
    "country": "India",
    "state": "West Bengal",
    "city": "Balurghat",
    "name": "Balurghat Airport",
    "icao": "VEBG",
    "lat": 25.2616996765136,
    "lon": 88.7956008911132
  },
  {
    "country": "India",
    "state": "West Bengal",
    "city": "Barrackpore",
    "name": "Barrackpore Air Force Station",
    "icao": "VEPI",
    "lat": 22.7810001373,
    "lon": 88.3591995239
  },
  {
    "country": "India",
    "state": "West Bengal",
    "city": "Behala",
    "name": "Behala Airport",
    "icao": "VEBA",
    "lat": 22.5042304992675,
    "lon": 88.2934265136718
  },
  {
    "country": "India",
    "state": "Assam",
    "city": "Dibrugarh",
    "name": "Chabua Air Force Station",
    "icao": "VECA",
    "lat": 27.4622001647949,
    "lon": 95.1176986694336
  },
  {
    "country": "India",
    "state": "Andhra Pradesh",
    "city": "Dunakonda",
    "name": "Dunakonda Airport",
    "icao": "VODK",
    "lat": 15.8063,
    "lon": 79.4882
  },
  {
    "country": "India",
    "state": "Chhattisgarh",
    "city": "Jagdalpur",
    "name": "Jagdalpur Airport",
    "icao": "IN-JGB",
    "lat": 19.0743007659912,
    "lon": 82.0367965698242
  },
  {
    "country": "India",
    "state": "Odisha",
    "city": "Jeypore",
    "name": "Jeypore Airport",
    "icao": "VEJP",
    "lat": 18.8799991607666,
    "lon": 82.552001953125
  },
  {
    "country": "India",
    "state": "Tripura",
    "city": "Khowai",
    "name": "Khowai Airport",
    "icao": "VEKW",
    "lat": 24.061899,
    "lon": 91.603897
  },
  {
    "country": "India",
    "state": "Maharashtra",
    "city": "Latur",
    "name": "Murod Kond Airport",
    "icao": "VO55",
    "lat": 18.411501,
    "lon": 76.464699
  },
  {
    "country": "India",
    "state": "Uttar Pradesh",
    "city": "Lucknow",
    "name": "Bakshi Ka Talab Air Force Station",
    "icao": "VIBL",
    "lat": 26.9883003234863,
    "lon": 80.8930969238281
  },
  {
    "country": "India",
    "state": "Maharashtra",
    "city": "Nanded",
    "name": "Nanded Airport",
    "icao": "VAND",
    "lat": 19.1833000183,
    "lon": 77.3167037963999
  },
  {
    "country": "India",
    "state": "Tamil Nadu",
    "city": "Neyveli",
    "name": "Neyveli Airport",
    "icao": "IN-NVY",
    "lat": 11.6129560471,
    "lon": 79.527381897
  },
  {
    "country": "India",
    "state": "Arunachal Pradesh",
    "city": "Pasighat",
    "name": "Pasighat Airport",
    "icao": "VEPG",
    "lat": 28.0660991668701,
    "lon": 95.3356018066406
  },
  {
    "country": "India",
    "state": "Jammu and Kashmir",
    "city": "Rajouri",
    "name": "Rajouri Airport",
    "icao": "IN-RJI",
    "lat": 33.3778991699218,
    "lon": 74.315200805664
  },
  {
    "country": "India",
    "state": "Tamil Nadu",
    "city": "Ramnad",
    "name": "Ramnad Naval Air Station",
    "icao": "VORM",
    "lat": 9.32509040833,
    "lon": 78.971496582
  },
  {
    "country": "India",
    "state": "Tamil Nadu",
    "city": "Thanjavur",
    "name": "Tanjore Air Force Base",
    "icao": "VOTJ",
    "lat": 10.7223997116088,
    "lon": 79.1016006469726
  },
  {
    "country": "India",
    "state": "Tamil Nadu",
    "city": "Thoothukudi",
    "name": "Tuticorin Airport",
    "icao": "VO80",
    "lat": 8.724241,
    "lon": 78.025803
  },
  {
    "country": "India",
    "state": "Tamil Nadu",
    "city": "Vellore",
    "name": "Vellore Airport",
    "icao": "VOVR",
    "lat": 12.908800125122,
    "lon": 79.0668029785156
  },
  {
    "country": "India",
    "state": "Telangana",
    "city": "Warangal",
    "name": "Warangal Airport",
    "icao": "VOWA",
    "lat": 17.9144,
    "lon": 79.602203
  },
  {
    "country": "India",
    "state": "Arunachal Pradesh",
    "city": "Tawang Air Force Station",
    "name": "Tawang Air Force Station",
    "icao": "IN-0002",
    "lat": 27.5884609222412,
    "lon": 91.8776931762695
  },
  {
    "country": "India",
    "state": "West Bengal",
    "city": "West Bengal",
    "name": "Cooch Behar Airport",
    "icao": "VECO",
    "lat": 26.330499649,
    "lon": 89.4672012329
  },
  {
    "country": "India",
    "state": "Tamil Nadu",
    "city": "Tamil Nadu",
    "name": "Kayathar Airstrip",
    "icao": "IN-0005",
    "lat": 8.97138881683349,
    "lon": 77.8206253051757
  },
  {
    "country": "India",
    "state": "Lakshadweep",
    "city": "Lakshadweep",
    "name": "Kavaratti Helipad",
    "icao": "IN-0008",
    "lat": 10.5416679382324,
    "lon": 72.6160430908203
  },
  {
    "country": "India",
    "state": "Arunachal Pradesh",
    "city": "Arunachal Pradesh",
    "name": "Walong Advanced Landing Ground",
    "icao": "IN-0010",
    "lat": 28.12967300415,
    "lon": 97.019660949707
  },
  {
    "country": "India",
    "state": "Manipur",
    "city": "Manipur",
    "name": "Koirengei Airstrip",
    "icao": "IN-0014",
    "lat": 24.872459411621,
    "lon": 93.9256820678711
  },
  {
    "country": "India",
    "state": "Meghalaya",
    "city": "Meghalaya",
    "name": "Baljek Airport",
    "icao": "IN-0015",
    "lat": 25.6614875793457,
    "lon": 90.3450393676757
  },
  {
    "country": "India",
    "state": "Assam",
    "city": "Assam",
    "name": "Ledo Airfield",
    "icao": "IN-0016",
    "lat": 27.3025,
    "lon": 95.737222
  },
  {
    "country": "India",
    "state": "West Bengal",
    "city": "West Bengal",
    "name": "Piardoba Airfield",
    "icao": "IN-0018",
    "lat": 22.9895085468,
    "lon": 87.2995948792
  },
  {
    "country": "India",
    "state": "Tamil Nadu",
    "city": "Tamil Nadu",
    "name": "Ulundurpet Airstrip",
    "icao": "IN-0020",
    "lat": 11.6885487471,
    "lon": 79.3213748932
  },
  {
    "country": "India",
    "state": "Mizoram",
    "city": "Mizoram",
    "name": "Thuampui Helipad",
    "icao": "IN-0027",
    "lat": 23.7458666666999,
    "lon": 92.7367333333
  },
  {
    "country": "India",
    "state": "Mizoram",
    "city": "Mizoram",
    "name": "Lunglei Helipad",
    "icao": "IN-0029",
    "lat": 22.8683833333,
    "lon": 92.7633
  },
  {
    "country": "India",
    "state": "Madhya Pradesh",
    "city": "Madhya Pradesh",
    "name": "Khargon Govt. Airstrip",
    "icao": "IN-0060",
    "lat": 21.8100301945999,
    "lon": 75.5544376373
  },
  {
    "country": "India",
    "state": "Bihar",
    "city": "Bihar",
    "name": "Madhubani Airport",
    "icao": "IN-0066",
    "lat": 26.3291666666999,
    "lon": 86.06
  },
  {
    "country": "India",
    "state": "Karnataka",
    "city": "Karnataka",
    "name": "Vijayanagar Aerodrome (JSW)",
    "icao": "IN-0070",
    "lat": 15.1749666667,
    "lon": 76.6349472222
  },
  {
    "country": "India",
    "state": "Chhattisgarh",
    "city": "Chhattisgarh",
    "name": "Raigarh Airport (JSPL)",
    "icao": "IN-0072",
    "lat": 21.9352805556,
    "lon": 83.3502138889
  },
  {
    "country": "India",
    "state": "Arunachal Pradesh",
    "city": "Arunachal Pradesh",
    "name": "Itanagar (Naharlagun)",
    "icao": "IN-0075",
    "lat": 27.111675,
    "lon": 93.6961055556
  },
  {
    "country": "India",
    "state": "West Bengal",
    "city": "West Bengal",
    "name": "Bishnupur Airfield",
    "icao": "IN-0078",
    "lat": 23.0339266917,
    "lon": 87.3548698425
  },
  {
    "country": "India",
    "state": "West Bengal",
    "city": "West Bengal",
    "name": "Pandaveswar Airfield",
    "icao": "IN-0080",
    "lat": 23.6413005209,
    "lon": 87.348690033
  },
  {
    "country": "India",
    "state": "Himachal Pradesh",
    "city": "Himachal Pradesh",
    "name": "Ajog Helipad",
    "icao": "IN-0082",
    "lat": 32.9219444444,
    "lon": 76.458
  },
  {
    "country": "India",
    "state": "Rajasthan",
    "city": "Rajasthan",
    "name": "Airport",
    "icao": "IN-0085",
    "lat": 26.436257,
    "lon": 73.102823
  },
  {
    "country": "India",
    "state": "Jharkhand",
    "city": "Jharkhand",
    "name": "Noamundi Airport",
    "icao": "IN-0089",
    "lat": 22.1922222222,
    "lon": 85.5488888889
  },
  {
    "country": "India",
    "state": "Bihar",
    "city": "Bihar",
    "name": "saharsa airstrip",
    "icao": "IN-0091",
    "lat": 25.8919444444,
    "lon": 86.5825
  },
  {
    "country": "India",
    "state": "Odisha",
    "city": "Odisha",
    "name": "no airport",
    "icao": "IN-0094",
    "lat": 20.46668667,
    "lon": 83.48333056
  },
  {
    "country": "India",
    "state": "Maharashtra",
    "city": "Aamby Valley City",
    "name": "Aamby Valley Airport",
    "icao": "IN-0033",
    "lat": 18.6096166666999,
    "lon": 73.3775833333
  },
  {
    "country": "India",
    "state": "Rajasthan",
    "city": "Ajmer",
    "name": "Kishangarh Airport",
    "icao": "VIKG",
    "lat": 26.601473,
    "lon": 74.814147
  },
  {
    "country": "India",
    "state": "Uttar Pradesh",
    "city": "Aligarth",
    "name": "Dhanipur Airstrip",
    "icao": "VIAH",
    "lat": 27.860856311,
    "lon": 78.1468677521
  },
  {
    "country": "India",
    "state": "Maharashtra",
    "city": "Amravati",
    "name": "Amravati (Belora) Airstrip",
    "icao": "IN-0065",
    "lat": 20.8133485115999,
    "lon": 77.7179074287
  },
  {
    "country": "India",
    "state": "Himachal Pradesh",
    "city": "Bilaspur",
    "name": "Bilaspur Helipad",
    "icao": "IN-0083",
    "lat": 31.3451388889,
    "lon": 76.75675
  },
  {
    "country": "India",
    "state": "Maharashtra",
    "city": "Chipi-Parule",
    "name": "Sindhudurg Airport",
    "icao": "IN-0107",
    "lat": 16.002552,
    "lon": 73.529846
  },
  {
    "country": "India",
    "state": "Jharkhand",
    "city": "Dumka",
    "name": "Sido Kanhu Airport",
    "icao": "IN-0100",
    "lat": 24.231185,
    "lon": 87.269989
  },
  {
    "country": "India",
    "state": "West Bengal",
    "city": "Durgapur",
    "name": "Kazi Nazrul Islam Airport",
    "icao": "VEDG",
    "lat": 23.6225,
    "lon": 87.243
  },
  {
    "country": "India",
    "state": "Manipur",
    "city": "Gangpimual",
    "name": "STC BSF Indian Army Helipad",
    "icao": "IN-0043",
    "lat": 24.3267,
    "lon": 93.6754666667
  },
  {
    "country": "India",
    "state": "Punjab",
    "city": "Jalandhar",
    "name": "PAP Complex Heliport",
    "icao": "IN-0044",
    "lat": 31.2920833333,
    "lon": 75.6072
  },
  {
    "country": "India",
    "state": "Maharashtra",
    "city": "Kalyan",
    "name": "Kalyan airstrip",
    "icao": "IN-0056",
    "lat": 19.1792197299,
    "lon": 73.1391835213
  },
  {
    "country": "India",
    "state": "Nagaland",
    "city": "Kohima",
    "name": "Kohima Helipad",
    "icao": "IN-0049",
    "lat": 25.6630666666999,
    "lon": 94.1139333333
  },
  {
    "country": "India",
    "state": "Maharashtra",
    "city": "Mimbai",
    "name": "Kunjali Helipad",
    "icao": "IN-0022",
    "lat": 18.895273369,
    "lon": 72.8084939718
  },
  {
    "country": "India",
    "state": "Lakshadweep",
    "city": "Minicoy Island",
    "name": "Minicoy Helipad",
    "icao": "IN-0007",
    "lat": 8.27363014221191,
    "lon": 73.0223007202148
  },
  {
    "country": "India",
    "state": "Gujarat",
    "city": "Mithapur",
    "name": "Mithapur Airport",
    "icao": "IN-0106",
    "lat": 22.412068,
    "lon": 68.993632
  },
  {
    "country": "India",
    "state": "Maharashtra",
    "city": "Mumbai",
    "name": "Butcher Island Helipad",
    "icao": "IN-0046",
    "lat": 18.9623,
    "lon": 72.9030833333
  },
  {
    "country": "India",
    "state": "Maharashtra",
    "city": "Mumbai",
    "name": "Raj Bhavan Helipad",
    "icao": "IN-0048",
    "lat": 18.94265,
    "lon": 72.7940166667
  },
  {
    "country": "India",
    "state": "Sikkim",
    "city": "Pakyong",
    "name": "Pakyong Airport",
    "icao": "IN-0012",
    "lat": 27.2313,
    "lon": 88.587196
  },
  {
    "country": "India",
    "state": "Sikkim",
    "city": "Pedong",
    "name": "Pedong Helipad",
    "icao": "IN-0040",
    "lat": 27.1559333333,
    "lon": 88.61065
  },
  {
    "country": "India",
    "state": "Rajasthan",
    "city": "Phalodi",
    "name": "Phalodi Airfield",
    "icao": "IN-0050",
    "lat": 27.1128333333,
    "lon": 72.389
  },
  {
    "country": "India",
    "state": "Jammu and Kashmir",
    "city": "Poonch",
    "name": "Poonch Airport",
    "icao": "IN-0088",
    "lat": 33.76875,
    "lon": 74.083753
  },
  {
    "country": "India",
    "state": "West Bengal",
    "city": "Purulia",
    "name": "Charra Airfield",
    "icao": "IN-0054",
    "lat": 23.3657772896,
    "lon": 86.4367389679
  },
  {
    "country": "India",
    "state": "West Bengal",
    "city": "Salugara",
    "name": "Sevoke Road Indian Army Heliport",
    "icao": "IN-0035",
    "lat": 26.7744,
    "lon": 88.4523166667
  },
  {
    "country": "India",
    "state": "Mizoram",
    "city": "Serchhip",
    "name": "Serchhip Helipad",
    "icao": "IN-0030",
    "lat": 23.32875,
    "lon": 92.8560666667
  },
  {
    "country": "India",
    "state": "Meghalaya",
    "city": "Shillong",
    "name": "Shillong Indian Army Helipad",
    "icao": "IN-0042",
    "lat": 25.54425,
    "lon": 91.8817166667
  },
  {
    "country": "India",
    "state": "Maharashtra",
    "city": "Shirpur",
    "name": "Shirpur Airport",
    "icao": "IN-0062",
    "lat": 21.3239987933,
    "lon": 74.9567341805
  },
  {
    "country": "India",
    "state": "Madhya Pradesh",
    "city": "Umaria",
    "name": "Umaria Air Field",
    "icao": "IN-0064",
    "lat": 23.5325139099,
    "lon": 80.8082199097
  },
  {
    "country": "India",
    "state": "Sikkim",
    "city": "Upper Tadong",
    "name": "Upper Tadong Indian Army Helipad",
    "icao": "IN-0038",
    "lat": 27.3067166666999,
    "lon": 88.59965
  },
  {
    "country": "India",
    "state": "Rajasthan",
    "city": "Vanasthali",
    "name": "Vanasthali Airport",
    "icao": "IN-0101",
    "lat": 26.407627,
    "lon": 75.870128
  },
  {
    "country": "India",
    "state": "Maharashtra",
    "city": "Vijay Nagar",
    "name": "Vijay Nagar Airport",
    "icao": "IN-0034",
    "lat": 19.8841,
    "lon": 73.8405666667
  }
]