[
  {
    "country": "Iran",
    "state": "Tehran Province",
    "city": "Tehran",
    "name": "Imam Khomeini International Airport",
    "icao": "OIIE",
    "lat": 35.4160995483398,
    "lon": 51.1521987915039
  },
  {
    "country": "Iran",
    "state": "Tehran Province",
    "city": "Tehran",
    "name": "Mehrabad International Airport",
    "icao": "OIII",
    "lat": 35.6892013549804,
    "lon": 51.3134002685546
  },
  {
    "country": "Iran",
    "state": "Fars Province",
    "city": "Shiraz",
    "name": "Shiraz Shahid Dastghaib International Airport",
    "icao": "OISS",
    "lat": 29.5392,
    "lon": 52.589802
  },
  {
    "country": "Iran",
    "state": "East Azarbaijan Province",
    "city": "Tabriz",
    "name": "Tabriz International Airport",
    "icao": "OITT",
    "lat": 38.1338996887207,
    "lon": 46.2350006103515
  },
  {
    "country": "Iran",
    "state": "Esfahan Province",
    "city": "Isfahan",
    "name": "Esfahan Shahid Beheshti International Airport",
    "icao": "OIFM",
    "lat": 32.7508010864257,
    "lon": 51.8613014221191
  },
  {
    "country": "Iran",
    "state": "Khuzestan Province",
    "city": "Abadan",
    "name": "Abadan Airport",
    "icao": "OIAA",
    "lat": 30.371099472,
    "lon": 48.2282981873
  },
  {
    "country": "Iran",
    "state": "Karaj",
    "city": "Karaj",
    "name": "Payam International Airport",
    "icao": "OIIP",
    "lat": 35.776100158691,
    "lon": 50.826698303223
  },
  {
    "country": "Iran",
    "state": "Qazvin Province",
    "city": "Qazvin Province",
    "name": "Ghazvin Azadi Airport",
    "icao": "OIIA",
    "lat": 35.9520988464355,
    "lon": 50.4508018493652
  },
  {
    "country": "Iran",
    "state": "Gilan Province",
    "city": "Rasht",
    "name": "Sardar-e-Jangal Airport",
    "icao": "OIGG",
    "lat": 37.323333,
    "lon": 49.617778
  },
  {
    "country": "Iran",
    "state": "Hormozgan Province",
    "city": "Bandar Lengeh",
    "name": "Bandar Lengeh Airport",
    "icao": "OIBL",
    "lat": 26.531999588,
    "lon": 54.824798584
  },
  {
    "country": "Iran",
    "state": "Bushehr Province",
    "city": "Bushehr",
    "name": "Bushehr Airport",
    "icao": "OIBB",
    "lat": 28.9447994232,
    "lon": 50.8345985413
  },
  {
    "country": "Iran",
    "state": "Hormozgan Province",
    "city": "Kish Island",
    "name": "Kish International Airport",
    "icao": "OIBK",
    "lat": 26.5261993408,
    "lon": 53.9802017212
  },
  {
    "country": "Iran",
    "state": "Hormozgan Province",
    "city": "Qeshm",
    "name": "Qeshm International Airport",
    "icao": "IR-GSM",
    "lat": 26.754639,
    "lon": 55.902353
  },
  {
    "country": "Iran",
    "state": "Golestan Province",
    "city": "Gorgan",
    "name": "Gorgan Airport",
    "icao": "OING",
    "lat": 36.9094009398999,
    "lon": 54.4012985229
  },
  {
    "country": "Iran",
    "state": "Khuzestan Province",
    "city": "Khuzestan Province",
    "name": "Mahshahr Airport",
    "icao": "OIAM",
    "lat": 30.5562000274658,
    "lon": 49.1519012451171
  },
  {
    "country": "Iran",
    "state": "Kordestan Province",
    "city": "Kordestan Province",
    "name": "Sanandaj Airport",
    "icao": "OICS",
    "lat": 35.2458992004394,
    "lon": 47.0092010498046
  },
  {
    "country": "Iran",
    "state": "South Khorasan Province",
    "city": "Birjand",
    "name": "Birjand Airport",
    "icao": "OIMB",
    "lat": 32.8981018066406,
    "lon": 59.2661018371582
  },
  {
    "country": "Iran",
    "state": "Sistan and Baluchestan Province",
    "city": "Chabahar",
    "name": "Konarak Airport",
    "icao": "OIZC",
    "lat": 25.4433002471999,
    "lon": 60.3820991516
  },
  {
    "country": "Iran",
    "state": "Mazandaran Province",
    "city": "Sari",
    "name": "Dasht-e Naz Airport",
    "icao": "OINZ",
    "lat": 36.635799408,
    "lon": 53.1935997008999
  },
  {
    "country": "Iran",
    "state": "Kerman Province",
    "city": "Kerman Province",
    "name": "Bam Airport",
    "icao": "OIKM",
    "lat": 29.0841999053955,
    "lon": 58.4500007629394
  },
  {
    "country": "Iran",
    "state": "Mazandaran Province",
    "city": "Mazandaran Province",
    "name": "Ramsar Airport",
    "icao": "OINR",
    "lat": 36.9099006652832,
    "lon": 50.6795997619628
  },
  {
    "country": "Iran",
    "state": "Bushehr Province",
    "city": "Bushehr Province",
    "name": "Khark Island Airport",
    "icao": "OIBQ",
    "lat": 29.2602996826171,
    "lon": 50.3238983154296
  },
  {
    "country": "Iran",
    "state": "Tehran Province",
    "city": "Tehran Province",
    "name": "Ghale Morghi Airport",
    "icao": "OIIG",
    "lat": 35.6447982788085,
    "lon": 51.3806991577148
  },
  {
    "country": "Iran",
    "state": "Hormozgan Province",
    "city": "Hormozgan Province",
    "name": "Dayrestan Airport",
    "icao": "OIKQ",
    "lat": 26.7546005249023,
    "lon": 55.9024009704589
  },
  {
    "country": "Iran",
    "state": "Sistan and Baluchestan Province",
    "city": "Sistan and Baluchestan Province",
    "name": "Zabol Airport",
    "icao": "OIZB",
    "lat": 31.0983009338378,
    "lon": 61.5438995361328
  },
  {
    "country": "Iran",
    "state": "Hormozgan Province",
    "city": "Abu Musa",
    "name": "Abu Musa Island Airport",
    "icao": "OIBA",
    "lat": 25.8757,
    "lon": 55.033001
  },
  {
    "country": "Iran",
    "state": "Khuzestan Province",
    "city": "Aghajari",
    "name": "Aghajari Airport",
    "icao": "OIAG",
    "lat": 30.7444,
    "lon": 49.6772
  },
  {
    "country": "Iran",
    "state": "Fars Province",
    "city": "Fasa",
    "name": "Fasa Airport",
    "icao": "OISF",
    "lat": 28.8917999267578,
    "lon": 53.7233009338378
  },
  {
    "country": "Iran",
    "state": "Hamadan Province",
    "city": "Hamadan",
    "name": "Hamadan Airport",
    "icao": "OIHH",
    "lat": 34.8692016601562,
    "lon": 48.5525016784668
  },
  {
    "country": "Iran",
    "state": "Bushehr Province",
    "city": "Kangan",
    "name": "Jam Airport",
    "icao": "OIBJ",
    "lat": 27.820499420166,
    "lon": 52.3521995544433
  },
  {
    "country": "Iran",
    "state": "Esfahan Province",
    "city": "Kashan",
    "name": "Kashan Airport",
    "icao": "OIFK",
    "lat": 33.895302,
    "lon": 51.577
  },
  {
    "country": "Iran",
    "state": "Chaharmahal and Bakhtiari Province",
    "city": "Shahrekord",
    "name": "Shahrekord Airport",
    "icao": "OIFS",
    "lat": 32.2971992493,
    "lon": 50.8422012328999
  },
  {
    "country": "Iran",
    "state": "Yazd Province",
    "city": "Tabas",
    "name": "Tabas Airport",
    "icao": "OIMT",
    "lat": 33.6678009033,
    "lon": 56.8927001953
  },
  {
    "country": "Iran",
    "state": "Fars Province",
    "city": "Fars Province",
    "name": "Mahmudabad Airport",
    "icao": "OI13",
    "lat": 30.0,
    "lon": 53.711498260498
  },
  {
    "country": "Iran",
    "state": "Golestan Province",
    "city": "Golestan Province",
    "name": "Mehtar Kalateh Airport",
    "icao": "OI1C",
    "lat": 36.8568992614746,
    "lon": 54.2022018432617
  },
  {
    "country": "Iran",
    "state": "Semnan Province",
    "city": "Semnan Province",
    "name": "Semnan New Airport",
    "icao": "IR-OI21",
    "lat": 35.3894004821777,
    "lon": 53.6713981628418
  },
  {
    "country": "Iran",
    "state": "Hormozgan Province",
    "city": "Hormozgan Province",
    "name": "Bastak Airport",
    "icao": "OIBH",
    "lat": 27.2126998901367,
    "lon": 54.3185997009277
  },
  {
    "country": "Iran",
    "state": "Qom Province",
    "city": "Qom Province",
    "name": "Kushke Nosrat Airport",
    "icao": "OIIC",
    "lat": 34.9840011596679,
    "lon": 50.8061981201171
  },
  {
    "country": "Iran",
    "state": "Semnan Province",
    "city": "Semnan Province",
    "name": "Shahroud Airport",
    "icao": "OIMJ",
    "lat": 36.4253005981,
    "lon": 55.1041984557999
  },
  {
    "country": "Iran",
    "state": "Lorestan Province",
    "city": "Lorestan Province",
    "name": "Aligoodarz Airport",
    "icao": "OICZ",
    "lat": 33.3835983276367,
    "lon": 49.6963996887207
  },
  {
    "country": "Iran",
    "state": "Kerman Province",
    "city": "Kerman Province",
    "name": "Baft Airport",
    "icao": "OIKF",
    "lat": 29.2341995239257,
    "lon": 56.6068992614746
  },
  {
    "country": "Iran",
    "state": "Mazandaran Province",
    "city": "Mazandaran Province",
    "name": "Behshahr Airport",
    "icao": "OINH",
    "lat": 36.6944007873535,
    "lon": 53.5424995422363
  },
  {
    "country": "Iran",
    "state": "Fars Province",
    "city": "Abadeh/Eghlid",
    "name": "North of Fars Airport",
    "icao": "OISA",
    "lat": 31.0355,
    "lon": 52.7866
  },
  {
    "country": "Iran",
    "state": "Iiam Province",
    "city": "Abdanan",
    "name": "Abdanan Airport",
    "icao": "OICD",
    "lat": 32.9345016479492,
    "lon": 47.4833984375
  },
  {
    "country": "Iran",
    "state": "Mazandaran Province",
    "city": "Amol",
    "name": "Bishe Kola Air Base",
    "icao": "OINJ",
    "lat": 36.655101776123,
    "lon": 52.3496017456054
  },
  {
    "country": "Iran",
    "state": "Yazd Province",
    "city": "Bafgh",
    "name": "Bafgh Airport",
    "icao": "OIYB",
    "lat": 31.5833320617999,
    "lon": 55.5666656493999
  },
  {
    "country": "Iran",
    "state": "Mazandaran Province",
    "city": "Ghaem Shahr",
    "name": "Ghaem Shahr Airport",
    "icao": "OINI",
    "lat": 36.4666671752929,
    "lon": 52.8666687011718
  },
  {
    "country": "Iran",
    "state": "Razavi Khorasan Province",
    "city": "Gonabad",
    "name": "Gonabad Airport",
    "icao": "OIMD",
    "lat": 34.349998474121,
    "lon": 58.6800003051757
  },
  {
    "country": "Iran",
    "state": "Fars Province",
    "city": "Jahrom",
    "name": "Jahrom Airport",
    "icao": "OISJ",
    "lat": 28.5867004394999,
    "lon": 53.5791015625
  },
  {
    "country": "Iran",
    "state": "Golestan Province",
    "city": "Kalaleh",
    "name": "Kalaleh Airport",
    "icao": "OINE",
    "lat": 37.3833007812,
    "lon": 55.4519996643
  },
  {
    "country": "Iran",
    "state": "West Azarbaijan Province",
    "city": "Khaneh",
    "name": "Khaneh Airport",
    "icao": "IR-0001",
    "lat": 36.733341217,
    "lon": 45.1500015259
  },
  {
    "country": "Iran",
    "state": "Fars Province",
    "city": "Lamerd",
    "name": "Lamerd Airport",
    "icao": "OISR",
    "lat": 27.3726997375,
    "lon": 53.1888008117999
  },
  {
    "country": "Iran",
    "state": "Esfahan Province",
    "city": "Mahmood Abad",
    "name": "Mahmood Abad Airport",
    "icao": "OINM",
    "lat": 34.1691665649414,
    "lon": 51.3175010681152
  },
  {
    "country": "Iran",
    "state": "Semnan Province",
    "city": "Semnan",
    "name": "Semnan Municipal Airport",
    "icao": "OIIS",
    "lat": 35.591099,
    "lon": 53.495098
  },
  {
    "country": "Iran",
    "state": "West Azarbaijan Province",
    "city": "Showt",
    "name": "Maku National Airport",
    "icao": "OITU",
    "lat": 39.330002,
    "lon": 44.43
  },
  {
    "country": "Iran",
    "state": "Esfahan Province",
    "city": "Zarrinshahr",
    "name": "Zarrinshahr Airport",
    "icao": "OIFV",
    "lat": 32.3274002075195,
    "lon": 51.3773002624511
  },
  {
    "country": "Iran",
    "state": "Kermanshah Province",
    "city": "Kermanshah Province",
    "name": "Shahabad Highway Strip",
    "icao": "IR-0005",
    "lat": 34.0704890613,
    "lon": 46.5970945358
  },
  {
    "country": "Iran",
    "state": "Bushehr Province",
    "city": "Bushehr Province",
    "name": "Gorreh Airport",
    "icao": "IR-0008",
    "lat": 29.9072363757,
    "lon": 50.4278469086
  },
  {
    "country": "Iran",
    "state": "Esfahan Province",
    "city": "Esfahan Province",
    "name": "Esfahan East Airport",
    "icao": "IR-0010",
    "lat": 32.5826921774,
    "lon": 52.0022177696
  },
  {
    "country": "Iran",
    "state": "Tehran Province",
    "city": "Tehran Province",
    "name": "Tehran West Airport",
    "icao": "IR-0012",
    "lat": 35.7419667495,
    "lon": 51.2292265891999
  },
  {
    "country": "Iran",
    "state": "Sistan and Baluchestan Province",
    "city": "Sistan and Baluchestan Province",
    "name": "KhÄsh Airport",
    "icao": "IR-0016",
    "lat": 28.2369897195999,
    "lon": 61.1826038361
  }
]