[
  {
    "country": "Kyrgyzstan",
    "state": "Osh Region",
    "city": "Osh",
    "name": "Osh Airport",
    "icao": "UAFO",
    "lat": 40.6090011597,
    "lon": 72.793296814
  },
  {
    "country": "Kyrgyzstan",
    "state": "Chuy Region",
    "city": "Bishkek",
    "name": "Chon Aryk Airport",
    "icao": "KG-0008",
    "lat": 42.8156013488769,
    "lon": 74.5856018066406
  },
  {
    "country": "Kyrgyzstan",
    "state": "Chuy Region",
    "city": "Bishkek",
    "name": "Frunze Northwest Airport",
    "icao": "KG-0010",
    "lat": 42.9141998291015,
    "lon": 74.50830078125
  },
  {
    "country": "Kyrgyzstan",
    "state": "Issyk Kul Region",
    "city": "Tamchy",
    "name": "Issyk-Kul International Airport",
    "icao": "UAFL",
    "lat": 42.58792,
    "lon": 76.713046
  },
  {
    "country": "Kyrgyzstan",
    "state": "Jalal-Abad Region",
    "city": "Kazarman",
    "name": "Kazarman Airport",
    "icao": "UAFZ",
    "lat": 41.4102908129,
    "lon": 74.044418335
  },
  {
    "country": "Kyrgyzstan",
    "state": "Batken Region",
    "city": "Batken",
    "name": "Batken Airport",
    "icao": "UA30",
    "lat": 40.042899,
    "lon": 70.83784
  },
  {
    "country": "Kyrgyzstan",
    "state": "Osh Region",
    "city": "Aravan",
    "name": "Aravan West Airport",
    "icao": "KG-0017",
    "lat": 40.5242004394531,
    "lon": 72.4067993164062
  },
  {
    "country": "Kyrgyzstan",
    "state": "Issyk Kul Region",
    "city": "Karakol",
    "name": "Karakol Airport",
    "icao": "UAFP",
    "lat": 42.5080986022999,
    "lon": 78.4077987671
  },
  {
    "country": "Kyrgyzstan",
    "state": "Jalal-Abad Region",
    "city": "Kerben",
    "name": "Kerben Airport",
    "icao": "KG-0014",
    "lat": 41.484500885,
    "lon": 71.7337036133
  },
  {
    "country": "Kyrgyzstan",
    "state": "Osh City",
    "city": "Osh",
    "name": "Osh West Airport",
    "icao": "KG-0020",
    "lat": 40.534901,
    "lon": 72.753799
  },
  {
    "country": "Kyrgyzstan",
    "state": "Talas Region",
    "city": "Pokrovka",
    "name": "Pokrovka Airport",
    "icao": "KG-0021",
    "lat": 42.7156982421875,
    "lon": 71.7099990844726
  },
  {
    "country": "Kyrgyzstan",
    "state": "Chuy Region",
    "city": "Sretenka",
    "name": "Sretenka Airport",
    "icao": "KG-0011",
    "lat": 42.9142990112304,
    "lon": 74.1190032958984
  },
  {
    "country": "Kyrgyzstan",
    "state": "Jalal-Abad Region",
    "city": "Suzak",
    "name": "Suzak Airport",
    "icao": "KG-0015",
    "lat": 40.898998260498,
    "lon": 72.9273986816406
  },
  {
    "country": "Kyrgyzstan",
    "state": "Chuy Region",
    "city": "Tokmok",
    "name": "Tokmok Airport",
    "icao": "KG-0007",
    "lat": 42.8288993834999,
    "lon": 75.3359985351999
  },
  {
    "country": "Kyrgyzstan",
    "state": "Jalal-Abad Region",
    "city": "Toktogul",
    "name": "Toktogul Airport",
    "icao": "KG-0003",
    "lat": 41.8779983520507,
    "lon": 72.8623962402343
  },
  {
    "country": "Kyrgyzstan",
    "state": "Jalal-Abad Region",
    "city": "Zarger",
    "name": "Torktul Airport",
    "icao": "KG-0016",
    "lat": 40.818000793457,
    "lon": 73.3041000366211
  },
  {
    "country": "Kyrgyzstan",
    "state": "Chuy Region",
    "city": "Ak Bashat village",
    "name": "Ak Bashat Airport",
    "icao": "UAAT",
    "lat": 42.88958,
    "lon": 73.602004
  },
  {
    "country": "Kyrgyzstan",
    "state": "Jalal-Abad Region",
    "city": "Aman Ail",
    "name": "Spasskoye/Akbash Airport",
    "icao": "KG-0033",
    "lat": 41.0316009521484,
    "lon": 72.993896484375
  },
  {
    "country": "Kyrgyzstan",
    "state": "Chuy Region",
    "city": "Belovodskoye",
    "name": "Belovodskoye Airport",
    "icao": "KG-0027",
    "lat": 42.8189010620117,
    "lon": 74.0730972290039
  },
  {
    "country": "Kyrgyzstan",
    "state": "Osh Region",
    "city": "Daraut Kurgan",
    "name": "Daraut Kurgan Airport",
    "icao": "KG-0036",
    "lat": 39.5466995239257,
    "lon": 72.2482986450195
  },
  {
    "country": "Kyrgyzstan",
    "state": "Talas Region",
    "city": "Groznoye",
    "name": "Groznoye Airport",
    "icao": "KG-0038",
    "lat": 42.6053009033203,
    "lon": 71.2134017944336
  },
  {
    "country": "Kyrgyzstan",
    "state": "Batken Region",
    "city": "Isfana",
    "name": "Isfana Airport",
    "icao": "UAFI",
    "lat": 39.8247374412999,
    "lon": 69.5688199997
  },
  {
    "country": "Kyrgyzstan",
    "state": "Batken Region",
    "city": "Kalacha",
    "name": "Kalacha Southwest Airport",
    "icao": "KG-0024",
    "lat": 40.0857009887695,
    "lon": 69.6352996826171
  },
  {
    "country": "Kyrgyzstan",
    "state": "Chuy Region",
    "city": "Kara Baita",
    "name": "Kara Baita Airport",
    "icao": "KG-0028",
    "lat": 42.8115005493164,
    "lon": 73.9004974365234
  },
  {
    "country": "Kyrgyzstan",
    "state": "Chuy Region",
    "city": "Miyanfan",
    "name": "Miyanfan Airport",
    "icao": "KG-0029",
    "lat": 42.9504013061523,
    "lon": 74.8425979614257
  },
  {
    "country": "Kyrgyzstan",
    "state": "Chuy Region",
    "city": "Novopokrovka",
    "name": "Novopokrovskiyi Airport",
    "icao": "KG-0022",
    "lat": 42.89127,
    "lon": 74.749743
  },
  {
    "country": "Kyrgyzstan",
    "state": "Issyk Kul Region",
    "city": "Prokovka",
    "name": "Pokrovka/Ozero Issyk Kul Airport",
    "icao": "KG-0042",
    "lat": 42.3510017395019,
    "lon": 78.0182037353515
  },
  {
    "country": "Kyrgyzstan",
    "state": "Batken Region",
    "city": "Sovetsky",
    "name": "Sovetsky/Kiyan Kul Airport",
    "icao": "KG-0026",
    "lat": 40.1719017028808,
    "lon": 71.3022994995117
  }
]