[
  {
    "country": "United States",
    "state": "Illinois",
    "city": "Chicago",
    "name": "Chicago O'Hare International Airport",
    "icao": "KORD",
    "lat": 41.9786,
    "lon": -87.9048
  },
  {
    "country": "United States",
    "state": "Georgia",
    "city": "Atlanta",
    "name": "Hartsfield Jackson Atlanta International Airport",
    "icao": "KATL",
    "lat": 33.6367,
    "lon": -84.428101
  },
  {
    "country": "United States",
    "state": "California",
    "city": "San Francisco",
    "name": "San Francisco International Airport",
    "icao": "KSFO",
    "lat": 37.6189994812011,
    "lon": -122.375
  },
  {
    "country": "United States",
    "state": "Texas",
    "city": "Dallas-Fort Worth",
    "name": "Dallas Fort Worth International Airport",
    "icao": "KDFW",
    "lat": 32.896801,
    "lon": -97.038002
  },
  {
    "country": "United States",
    "state": "Florida",
    "city": "Orlando",
    "name": "Orlando International Airport",
    "icao": "KMCO",
    "lat": 28.4293994903564,
    "lon": -81.3089981079101
  },
  {
    "country": "United States",
    "state": "New York",
    "city": "New York",
    "name": "La Guardia Airport",
    "icao": "KLGA",
    "lat": 40.777199,
    "lon": -73.872597
  },
  {
    "country": "United States",
    "state": "Florida",
    "city": "Miami",
    "name": "Miami International Airport",
    "icao": "KMIA",
    "lat": 25.7931995391845,
    "lon": -80.2906036376953
  },
  {
    "country": "United States",
    "state": "Massachusetts",
    "city": "Boston",
    "name": "General Edward Lawrence Logan International Airport",
    "icao": "KBOS",
    "lat": 42.36429977,
    "lon": -71.00520325
  },
  {
    "country": "United States",
    "state": "North Carolina",
    "city": "Charlotte",
    "name": "Charlotte Douglas International Airport",
    "icao": "KCLT",
    "lat": 35.2140007019043,
    "lon": -80.9430999755859
  },
  {
    "country": "United States",
    "state": "Michigan",
    "city": "Detroit",
    "name": "Detroit Metropolitan Wayne County Airport",
    "icao": "KDTW",
    "lat": 42.2123985290527,
    "lon": -83.353401184082
  },
  {
    "country": "United States",
    "state": "District of Columbia",
    "city": "Washington",
    "name": "Ronald Reagan Washington National Airport",
    "icao": "KDCA",
    "lat": 38.8521,
    "lon": -77.037697
  },
  {
    "country": "United States",
    "state": "Utah",
    "city": "Salt Lake City",
    "name": "Salt Lake City International Airport",
    "icao": "KSLC",
    "lat": 40.7883987426757,
    "lon": -111.977996826171
  },
  {
    "country": "United States",
    "state": "California",
    "city": "San Diego",
    "name": "San Diego International Airport",
    "icao": "KSAN",
    "lat": 32.7336006165,
    "lon": -117.190002441
  },
  {
    "country": "United States",
    "state": "Florida",
    "city": "Fort Lauderdale",
    "name": "Fort Lauderdale Hollywood International Airport",
    "icao": "KFLL",
    "lat": 26.072599,
    "lon": -80.152702
  },
  {
    "country": "United States",
    "state": "Missouri",
    "city": "St Louis",
    "name": "St Louis Lambert International Airport",
    "icao": "KSTL",
    "lat": 38.748697,
    "lon": -90.370003
  },
  {
    "country": "United States",
    "state": "Oregon",
    "city": "Portland",
    "name": "Portland International Airport",
    "icao": "KPDX",
    "lat": 45.58869934,
    "lon": -122.5979996
  },
  {
    "country": "United States",
    "state": "Louisiana",
    "city": "New Orleans",
    "name": "Louis Armstrong New Orleans International Airport",
    "icao": "KMSY",
    "lat": 29.9934005737304,
    "lon": -90.2580032348632
  },
  {
    "country": "United States",
    "state": "Florida",
    "city": "Tampa",
    "name": "Tampa International Airport",
    "icao": "KTPA",
    "lat": 27.9755001068115,
    "lon": -82.533203125
  },
  {
    "country": "United States",
    "state": "California",
    "city": "San Jose",
    "name": "Norman Y. Mineta San Jose International Airport",
    "icao": "KSJC",
    "lat": 37.362598,
    "lon": -121.929001
  },
  {
    "country": "United States",
    "state": "North Carolina",
    "city": "Raleigh/Durham",
    "name": "Raleigh Durham International Airport",
    "icao": "KRDU",
    "lat": 35.8776016235351,
    "lon": -78.7874984741211
  },
  {
    "country": "United States",
    "state": "Tennessee",
    "city": "Memphis",
    "name": "Memphis International Airport",
    "icao": "KMEM",
    "lat": 35.0424003601074,
    "lon": -89.9766998291015
  },
  {
    "country": "United States",
    "state": "Texas",
    "city": "San Antonio",
    "name": "San Antonio International Airport",
    "icao": "KSAT",
    "lat": 29.533701,
    "lon": -98.469803
  },
  {
    "country": "United States",
    "state": "Missouri",
    "city": "Kansas City",
    "name": "Kansas City International Airport",
    "icao": "KMCI",
    "lat": 39.2976,
    "lon": -94.713898
  },
  {
    "country": "United States",
    "state": "Ohio",
    "city": "Cleveland",
    "name": "Cleveland Hopkins International Airport",
    "icao": "KCLE",
    "lat": 41.4117012024,
    "lon": -81.8498001099
  },
  {
    "country": "United States",
    "state": "Indiana",
    "city": "Indianapolis",
    "name": "Indianapolis International Airport",
    "icao": "KIND",
    "lat": 39.7173,
    "lon": -86.294403
  },
  {
    "country": "United States",
    "state": "Wisconsin",
    "city": "Milwaukee",
    "name": "General Mitchell International Airport",
    "icao": "KMKE",
    "lat": 42.9472007751464,
    "lon": -87.8965988159179
  },
  {
    "country": "United States",
    "state": "Arizona",
    "city": "Tucson",
    "name": "Tucson International Airport / Morris Air National Guard Base",
    "icao": "KTUS",
    "lat": 32.115004,
    "lon": -110.938053
  },
  {
    "country": "United States",
    "state": "Connecticut",
    "city": "Hartford",
    "name": "Bradley International Airport",
    "icao": "KBDL",
    "lat": 41.9388999939,
    "lon": -72.6831970214999
  },
  {
    "country": "United States",
    "state": "Florida",
    "city": "Jacksonville",
    "name": "Jacksonville International Airport",
    "icao": "KJAX",
    "lat": 30.4941005706787,
    "lon": -81.6878967285156
  },
  {
    "country": "United States",
    "state": "California",
    "city": "Sacramento",
    "name": "Sacramento International Airport",
    "icao": "KSMF",
    "lat": 38.6954002380371,
    "lon": -121.591003417968
  },
  {
    "country": "United States",
    "state": "Hawaii",
    "city": "Kahului",
    "name": "Kahului Airport",
    "icao": "PHOG",
    "lat": 20.8986,
    "lon": -156.429993
  },
  {
    "country": "United States",
    "state": "Rhode Island",
    "city": "Providence",
    "name": "Theodore Francis Green State Airport",
    "icao": "KPVD",
    "lat": 41.732601,
    "lon": -71.420403
  },
  {
    "country": "United States",
    "state": "Virginia",
    "city": "Norfolk",
    "name": "Norfolk International Airport",
    "icao": "KORF",
    "lat": 36.8945999145507,
    "lon": -76.2012023925781
  },
  {
    "country": "United States",
    "state": "Florida",
    "city": "West Palm Beach",
    "name": "Palm Beach International Airport",
    "icao": "KPBI",
    "lat": 26.6832008361816,
    "lon": -80.0955963134765
  },
  {
    "country": "United States",
    "state": "Idaho",
    "city": "Boise",
    "name": "Boise Air Terminal/Gowen Field",
    "icao": "KBOI",
    "lat": 43.5644,
    "lon": -116.223
  },
  {
    "country": "United States",
    "state": "Georgia",
    "city": "Savannah",
    "name": "Savannah Hilton Head International Airport",
    "icao": "KSAV",
    "lat": 32.12760162,
    "lon": -81.20210266
  },
  {
    "country": "United States",
    "state": "Alabama",
    "city": "Birmingham",
    "name": "Birmingham-Shuttlesworth International Airport",
    "icao": "KBHM",
    "lat": 33.56290054,
    "lon": -86.75350189
  },
  {
    "country": "United States",
    "state": "New York",
    "city": "Syracuse",
    "name": "Syracuse Hancock International Airport",
    "icao": "KSYR",
    "lat": 43.1111984252929,
    "lon": -76.1063003540039
  },
  {
    "country": "United States",
    "state": "New York",
    "city": "Albany",
    "name": "Albany International Airport",
    "icao": "KALB",
    "lat": 42.7482986450195,
    "lon": -73.8016967773437
  },
  {
    "country": "United States",
    "state": "Washington",
    "city": "Spokane",
    "name": "Spokane International Airport",
    "icao": "KGEG",
    "lat": 47.6198997497558,
    "lon": -117.533996582031
  },
  {
    "country": "United States",
    "state": "Wisconsin",
    "city": "Oshkosh",
    "name": "Wittman Regional Airport",
    "icao": "KOSH",
    "lat": 43.9844017028808,
    "lon": -88.5569992065429
  },
  {
    "country": "United States",
    "state": "Ohio",
    "city": "Dayton",
    "name": "James M Cox Dayton International Airport",
    "icao": "KDAY",
    "lat": 39.9024009704589,
    "lon": -84.2193984985351
  },
  {
    "country": "United States",
    "state": "Hawaii",
    "city": "Kailua-Kona",
    "name": "Ellison Onizuka Kona International Airport at Keahole",
    "icao": "PHKO",
    "lat": 19.738783,
    "lon": -156.045603
  },
  {
    "country": "United States",
    "state": "New York",
    "city": "Rochester",
    "name": "Greater Rochester International Airport",
    "icao": "KROC",
    "lat": 43.1189002990722,
    "lon": -77.6724014282226
  },
  {
    "country": "United States",
    "state": "Kansas",
    "city": "Wichita",
    "name": "Wichita Eisenhower National Airport",
    "icao": "KICT",
    "lat": 37.649899,
    "lon": -97.433098
  },
  {
    "country": "United States",
    "state": "Florida",
    "city": "Fort Myers",
    "name": "Southwest Florida International Airport",
    "icao": "KRSW",
    "lat": 26.5361995697021,
    "lon": -81.7552032470703
  },
  {
    "country": "United States",
    "state": "Colorado",
    "city": "Colorado Springs",
    "name": "City of Colorado Springs Municipal Airport",
    "icao": "KCOS",
    "lat": 38.805801,
    "lon": -104.700996
  },
  {
    "country": "United States",
    "state": "Iowa",
    "city": "Des Moines",
    "name": "Des Moines International Airport",
    "icao": "KDSM",
    "lat": 41.5340003967285,
    "lon": -93.663101196289
  },
  {
    "country": "United States",
    "state": "Maine",
    "city": "Portland",
    "name": "Portland International Jetport",
    "icao": "KPWM",
    "lat": 43.646198,
    "lon": -70.309303
  },
  {
    "country": "United States",
    "state": "Arkansas",
    "city": "Little Rock",
    "name": "Bill & Hillary Clinton National Airport/Adams Field",
    "icao": "KLIT",
    "lat": 34.7294006347999,
    "lon": -92.2242965698
  },
  {
    "country": "United States",
    "state": "California",
    "city": "Palm Springs",
    "name": "Palm Springs International Airport",
    "icao": "KPSP",
    "lat": 33.8297004699707,
    "lon": -116.507003784179
  },
  {
    "country": "United States",
    "state": "Florida",
    "city": "Pensacola",
    "name": "Pensacola International Airport",
    "icao": "KPNS",
    "lat": 30.4734,
    "lon": -87.1866
  },
  {
    "country": "United States",
    "state": "Vermont",
    "city": "Burlington",
    "name": "Burlington International Airport",
    "icao": "KBTV",
    "lat": 44.4719009398999,
    "lon": -73.1532974242999
  },
  {
    "country": "United States",
    "state": "North Carolina",
    "city": "Greensboro",
    "name": "Piedmont Triad International Airport",
    "icao": "KGSO",
    "lat": 36.097801208496,
    "lon": -79.9373016357421
  },
  {
    "country": "United States",
    "state": "Washington",
    "city": "Seattle",
    "name": "Boeing Field King County International Airport",
    "icao": "KBFI",
    "lat": 47.5299987792968,
    "lon": -122.302001953125
  },
  {
    "country": "United States",
    "state": "California",
    "city": "Monterey",
    "name": "Monterey Peninsula Airport",
    "icao": "KMRY",
    "lat": 36.5870018005371,
    "lon": -121.843002319335
  },
  {
    "country": "United States",
    "state": "New Jersey",
    "city": "Teterboro",
    "name": "Teterboro Airport",
    "icao": "KTEB",
    "lat": 40.8501014708999,
    "lon": -74.060798645
  },
  {
    "country": "United States",
    "state": "Florida",
    "city": "Key West",
    "name": "Key West International Airport",
    "icao": "KEYW",
    "lat": 24.5561008453369,
    "lon": -81.7595977783203
  },
  {
    "country": "United States",
    "state": "Maine",
    "city": "Bangor",
    "name": "Bangor International Airport",
    "icao": "KBGR",
    "lat": 44.8073997497558,
    "lon": -68.8281021118164
  },
  {
    "country": "United States",
    "state": "Florida",
    "city": "St Petersburg-Clearwater",
    "name": "St Petersburg Clearwater International Airport",
    "icao": "KPIE",
    "lat": 27.91020012,
    "lon": -82.68740082
  },
  {
    "country": "United States",
    "state": "California",
    "city": "Santa Monica",
    "name": "Santa Monica Municipal Airport",
    "icao": "KSMO",
    "lat": 34.0158,
    "lon": -118.450996
  },
  {
    "country": "United States",
    "state": "Pennsylvania",
    "city": "Harrisburg",
    "name": "Harrisburg International Airport",
    "icao": "KMDT",
    "lat": 40.1935005188,
    "lon": -76.7633972168
  },
  {
    "country": "United States",
    "state": "Texas",
    "city": "Amarillo",
    "name": "Rick Husband Amarillo International Airport",
    "icao": "KAMA",
    "lat": 35.219398,
    "lon": -101.706001
  },
  {
    "country": "United States",
    "state": "Hawaii",
    "city": "Lihue",
    "name": "Lihue Airport",
    "icao": "PHLI",
    "lat": 21.9759998321533,
    "lon": -159.339004516601
  },
  {
    "country": "United States",
    "state": "California",
    "city": "San Diego",
    "name": "Montgomery-Gibbs Executive Airport",
    "icao": "KMYF",
    "lat": 32.8157,
    "lon": -117.139999
  },
  {
    "country": "United States",
    "state": "Colorado",
    "city": "Denver",
    "name": "Centennial Airport",
    "icao": "KAPA",
    "lat": 39.57009888,
    "lon": -104.848999
  },
  {
    "country": "United States",
    "state": "North Carolina",
    "city": "Asheville",
    "name": "Asheville Regional Airport",
    "icao": "KAVL",
    "lat": 35.436199,
    "lon": -82.541801
  },
  {
    "country": "United States",
    "state": "Hawaii",
    "city": "Hilo",
    "name": "Hilo International Airport",
    "icao": "PHTO",
    "lat": 19.7213993072509,
    "lon": -155.04800415039
  },
  {
    "country": "United States",
    "state": "Alabama",
    "city": "Huntsville",
    "name": "Huntsville International Carl T Jones Field",
    "icao": "KHSV",
    "lat": 34.637199401855,
    "lon": -86.775100708008
  },
  {
    "country": "United States",
    "state": "California",
    "city": "San Luis Obispo",
    "name": "San Luis County Regional Airport",
    "icao": "KSBP",
    "lat": 35.2368011474999,
    "lon": -120.641998291
  },
  {
    "country": "United States",
    "state": "Wyoming",
    "city": "Jackson",
    "name": "Jackson Hole Airport",
    "icao": "KJAC",
    "lat": 43.6072998046875,
    "lon": -110.737998962402
  },
  {
    "country": "United States",
    "state": "Iowa",
    "city": "Cedar Rapids",
    "name": "The Eastern Iowa Airport",
    "icao": "KCID",
    "lat": 41.8847007751464,
    "lon": -91.7108001708984
  },
  {
    "country": "United States",
    "state": "New York",
    "city": "Islip",
    "name": "Long Island Mac Arthur Airport",
    "icao": "KISP",
    "lat": 40.79520035,
    "lon": -73.10019684
  },
  {
    "country": "United States",
    "state": "Missouri",
    "city": "Springfield",
    "name": "Springfield Branson National Airport",
    "icao": "KSGF",
    "lat": 37.24570084,
    "lon": -93.38860321
  },
  {
    "country": "United States",
    "state": "California",
    "city": "Napa",
    "name": "Napa County Airport",
    "icao": "KAPC",
    "lat": 38.2132,
    "lon": -122.280998
  },
  {
    "country": "United States",
    "state": "Montana",
    "city": "Billings",
    "name": "Billings Logan International Airport",
    "icao": "KBIL",
    "lat": 45.8077011108398,
    "lon": -108.542999267578
  },
  {
    "country": "United States",
    "state": "California",
    "city": "Santa Rosa",
    "name": "Charles M. Schulz Sonoma County Airport",
    "icao": "KSTS",
    "lat": 38.50899887,
    "lon": -122.8130035
  },
  {
    "country": "United States",
    "state": "California",
    "city": "Concord",
    "name": "Buchanan Field",
    "icao": "KCCR",
    "lat": 37.9897003174,
    "lon": -122.056999207
  },
  {
    "country": "United States",
    "state": "Arizona",
    "city": "Sedona",
    "name": "Sedona Airport",
    "icao": "KSEZ",
    "lat": 34.848598480225,
    "lon": -111.78800201416
  },
  {
    "country": "United States",
    "state": "Alabama",
    "city": "Mobile",
    "name": "Mobile Regional Airport",
    "icao": "KMOB",
    "lat": 30.691200256348,
    "lon": -88.242797851562
  },
  {
    "country": "United States",
    "state": "New York",
    "city": "Newburgh",
    "name": "New York Stewart International Airport",
    "icao": "KSWF",
    "lat": 41.504101,
    "lon": -74.104797
  },
  {
    "country": "United States",
    "state": "California",
    "city": "Sacramento",
    "name": "Sacramento Executive Airport",
    "icao": "KSAC",
    "lat": 38.5125007629,
    "lon": -121.492996216
  },
  {
    "country": "United States",
    "state": "Florida",
    "city": "Lakeland",
    "name": "Lakeland Linder International Airport",
    "icao": "KLAL",
    "lat": 27.988899,
    "lon": -82.018602
  },
  {
    "country": "United States",
    "state": "South Dakota",
    "city": "Sioux Falls",
    "name": "Joe Foss Field Airport",
    "icao": "KFSD",
    "lat": 43.5820007324,
    "lon": -96.741897583
  },
  {
    "country": "United States",
    "state": "California",
    "city": "Livermore",
    "name": "Livermore Municipal Airport",
    "icao": "KLVK",
    "lat": 37.6934013367,
    "lon": -121.819999695
  },
  {
    "country": "United States",
    "state": "Minnesota",
    "city": "Duluth",
    "name": "Duluth International Airport",
    "icao": "KDLH",
    "lat": 46.8420982361,
    "lon": -92.1936035155999
  },
  {
    "country": "United States",
    "state": "North Dakota",
    "city": "Fargo",
    "name": "Hector International Airport",
    "icao": "KFAR",
    "lat": 46.9207000732421,
    "lon": -96.815803527832
  },
  {
    "country": "United States",
    "state": "Mississippi",
    "city": "Jackson",
    "name": "Jackson-Medgar Wiley Evers International Airport",
    "icao": "KJAN",
    "lat": 32.3111991882,
    "lon": -90.0758972168
  },
  {
    "country": "United States",
    "state": "Minnesota",
    "city": "Rochester",
    "name": "Rochester International Airport",
    "icao": "KRST",
    "lat": 43.9082984924316,
    "lon": -92.5
  },
  {
    "country": "United States",
    "state": "Virginia",
    "city": "Roanoke",
    "name": "Roanoke Blacksburg Regional Airport",
    "icao": "KROA",
    "lat": 37.3255,
    "lon": -79.975403
  },
  {
    "country": "United States",
    "state": "Florida",
    "city": "Melbourne",
    "name": "Melbourne International Airport",
    "icao": "KMLB",
    "lat": 28.1028003692626,
    "lon": -80.6453018188476
  },
  {
    "country": "United States",
    "state": "Nevada",
    "city": "Las Vegas",
    "name": "Henderson Executive Airport",
    "icao": "KHND",
    "lat": 35.9728012085,
    "lon": -115.134002686
  },
  {
    "country": "United States",
    "state": "Ohio",
    "city": "Cincinnati",
    "name": "Cincinnati Municipal Airport Lunken Field",
    "icao": "KLUK",
    "lat": 39.10329819,
    "lon": -84.41860199
  },
  {
    "country": "United States",
    "state": "California",
    "city": "Paso Robles",
    "name": "Paso Robles Municipal Airport",
    "icao": "KPRB",
    "lat": 35.67290115,
    "lon": -120.6269989
  },
  {
    "country": "United States",
    "state": "Nebraska",
    "city": "Lincoln",
    "name": "Lincoln Airport",
    "icao": "KLNK",
    "lat": 40.8510017395019,
    "lon": -96.7592010498046
  },
  {
    "country": "United States",
    "state": "Washington",
    "city": "Everett",
    "name": "Snohomish County (Paine Field) Airport",
    "icao": "KPAE",
    "lat": 47.90629959,
    "lon": -122.2819977
  },
  {
    "country": "United States",
    "state": "Colorado",
    "city": "Pueblo",
    "name": "Pueblo Memorial Airport",
    "icao": "KPUB",
    "lat": 38.2891006469726,
    "lon": -104.497001647949
  },
  {
    "country": "United States",
    "state": "California",
    "city": "Hayward",
    "name": "Hayward Executive Airport",
    "icao": "KHWD",
    "lat": 37.659198761,
    "lon": -122.122001648
  },
  {
    "country": "United States",
    "state": "Virginia",
    "city": "Newport News",
    "name": "Newport News Williamsburg International Airport",
    "icao": "KPHF",
    "lat": 37.13190079,
    "lon": -76.49299622
  },
  {
    "country": "United States",
    "state": "Oregon",
    "city": "Medford",
    "name": "Rogue Valley International Medford Airport",
    "icao": "KMFR",
    "lat": 42.3741989135742,
    "lon": -122.873001098632
  },
  {
    "country": "United States",
    "state": "Texas",
    "city": "Fort Worth",
    "name": "Fort Worth Meacham International Airport",
    "icao": "KFTW",
    "lat": 32.819801,
    "lon": -97.362396
  },
  {
    "country": "United States",
    "state": "Mississippi",
    "city": "Gulfport",
    "name": "Gulfport Biloxi International Airport",
    "icao": "KGPT",
    "lat": 30.4073009490966,
    "lon": -89.0700988769531
  },
  {
    "country": "United States",
    "state": "Florida",
    "city": "Vero Beach",
    "name": "Vero Beach Regional Airport",
    "icao": "KVRB",
    "lat": 27.6556,
    "lon": -80.417901
  },
  {
    "country": "United States",
    "state": "California",
    "city": "Big Bear",
    "name": "Big Bear City Airport",
    "icao": "KL35",
    "lat": 34.2638015747,
    "lon": -116.856002808
  },
  {
    "country": "United States",
    "state": "Massachusetts",
    "city": "Martha's Vineyard",
    "name": "Martha's Vineyard Airport",
    "icao": "KMVY",
    "lat": 41.3931007385,
    "lon": -70.6143035889
  },
  {
    "country": "United States",
    "state": "Ohio",
    "city": "Toledo",
    "name": "Toledo Express Airport",
    "icao": "KTOL",
    "lat": 41.58679962,
    "lon": -83.80780029
  },
  {
    "country": "United States",
    "state": "Michigan",
    "city": "Lansing",
    "name": "Capital City Airport",
    "icao": "KLAN",
    "lat": 42.7787017822265,
    "lon": -84.58740234375
  },
  {
    "country": "United States",
    "state": "Arizona",
    "city": "Phoenix",
    "name": "Phoenix-Mesa-Gateway Airport",
    "icao": "KIWA",
    "lat": 33.30780029,
    "lon": -111.6549988
  },
  {
    "country": "United States",
    "state": "North Dakota",
    "city": "Bismarck",
    "name": "Bismarck Municipal Airport",
    "icao": "KBIS",
    "lat": 46.7727012634277,
    "lon": -100.746002197265
  },
  {
    "country": "United States",
    "state": "Utah",
    "city": "St George",
    "name": "St George Municipal Airport",
    "icao": "KSGU",
    "lat": 37.036389,
    "lon": -113.510306
  },
  {
    "country": "United States",
    "state": "Louisiana",
    "city": "Shreveport",
    "name": "Shreveport Regional Airport",
    "icao": "KSHV",
    "lat": 32.446602,
    "lon": -93.8256
  },
  {
    "country": "United States",
    "state": "Michigan",
    "city": "Flint",
    "name": "Bishop International Airport",
    "icao": "KFNT",
    "lat": 42.9654006958007,
    "lon": -83.7435989379882
  },
  {
    "country": "United States",
    "state": "California",
    "city": "Santa Maria",
    "name": "Santa Maria Pub/Capt G Allan Hancock Field",
    "icao": "KSMX",
    "lat": 34.89889908,
    "lon": -120.4570007
  },
  {
    "country": "United States",
    "state": "Colorado",
    "city": "Eagle",
    "name": "Eagle County Regional Airport",
    "icao": "KEGE",
    "lat": 39.64260101,
    "lon": -106.9179993
  },
  {
    "country": "United States",
    "state": "Oregon",
    "city": "Portland",
    "name": "Portland Hillsboro Airport",
    "icao": "KHIO",
    "lat": 45.540401,
    "lon": -122.949997
  },
  {
    "country": "United States",
    "state": "Illinois",
    "city": "Bloomington/Normal",
    "name": "Central Illinois Regional Airport at Bloomington-Normal",
    "icao": "KBMI",
    "lat": 40.47710037,
    "lon": -88.91590118
  },
  {
    "country": "United States",
    "state": "Illinois",
    "city": "Moline",
    "name": "Quad City International Airport",
    "icao": "KMLI",
    "lat": 41.448501586914,
    "lon": -90.5074996948242
  },
  {
    "country": "United States",
    "state": "New York",
    "city": "Elmira/Corning",
    "name": "Elmira Corning Regional Airport",
    "icao": "KELM",
    "lat": 42.1599006652832,
    "lon": -76.8916015625
  },
  {
    "country": "United States",
    "state": "Texas",
    "city": "Waco",
    "name": "Waco Regional Airport",
    "icao": "KACT",
    "lat": 31.6112995147705,
    "lon": -97.2304992675781
  },
  {
    "country": "United States",
    "state": "New York",
    "city": "Ithaca",
    "name": "Ithaca Tompkins Regional Airport",
    "icao": "KITH",
    "lat": 42.4910011291503,
    "lon": -76.4583969116211
  },
  {
    "country": "United States",
    "state": "California",
    "city": "Columbia",
    "name": "Columbia Airport",
    "icao": "KO22",
    "lat": 38.0303993224999,
    "lon": -120.415000916
  },
  {
    "country": "United States",
    "state": "California",
    "city": "Fullerton",
    "name": "Fullerton Municipal Airport",
    "icao": "KFUL",
    "lat": 33.8720016479,
    "lon": -117.980003357
  },
  {
    "country": "United States",
    "state": "California",
    "city": "Petaluma",
    "name": "Petaluma Municipal Airport",
    "icao": "KO69",
    "lat": 38.25780106,
    "lon": -122.6060028
  },
  {
    "country": "United States",
    "state": "Illinois",
    "city": "Peoria",
    "name": "General Wayne A. Downing Peoria International Airport",
    "icao": "KPIA",
    "lat": 40.6641998291,
    "lon": -89.6932983398
  },
  {
    "country": "United States",
    "state": "Wyoming",
    "city": "Cheyenne",
    "name": "Cheyenne Regional Jerry Olson Field",
    "icao": "KCYS",
    "lat": 41.15570068,
    "lon": -104.8119965
  },
  {
    "country": "United States",
    "state": "New Hampshire",
    "city": "Portsmouth",
    "name": "Portsmouth International at Pease Airport",
    "icao": "KPSM",
    "lat": 43.0778999329,
    "lon": -70.8233032227
  },
  {
    "country": "United States",
    "state": "Texas",
    "city": "Galveston",
    "name": "Scholes International At Galveston Airport",
    "icao": "KGLS",
    "lat": 29.2653007507324,
    "lon": -94.8603973388671
  },
  {
    "country": "United States",
    "state": "Arizona",
    "city": "Page",
    "name": "Page Municipal Airport",
    "icao": "KPGA",
    "lat": 36.92610168,
    "lon": -111.447998
  },
  {
    "country": "United States",
    "state": "Wisconsin",
    "city": "Appleton",
    "name": "Appleton International Airport",
    "icao": "KATW",
    "lat": 44.2580986022999,
    "lon": -88.5190963745
  },
  {
    "country": "United States",
    "state": "Alabama",
    "city": "Montgomery",
    "name": "Montgomery Regional (Dannelly Field) Airport",
    "icao": "KMGM",
    "lat": 32.30059814,
    "lon": -86.39399719
  },
  {
    "country": "United States",
    "state": "Connecticut",
    "city": "Bridgeport",
    "name": "Igor I Sikorsky Memorial Airport",
    "icao": "KBDR",
    "lat": 41.1635017395019,
    "lon": -73.1261978149414
  },
  {
    "country": "United States",
    "state": "Michigan",
    "city": "Traverse City",
    "name": "Cherry Capital Airport",
    "icao": "KTVC",
    "lat": 44.7414016723632,
    "lon": -85.5821990966796
  },
  {
    "country": "United States",
    "state": "Arizona",
    "city": "Bullhead City",
    "name": "Laughlin Bullhead International Airport",
    "icao": "KIFP",
    "lat": 35.15739822,
    "lon": -114.5599976
  },
  {
    "country": "United States",
    "state": "Florida",
    "city": "Fort Pierce",
    "name": "St Lucie County International Airport",
    "icao": "KFPR",
    "lat": 27.49510002,
    "lon": -80.36830139
  },
  {
    "country": "United States",
    "state": "Florida",
    "city": "Jacksonville",
    "name": "Jacksonville Executive at Craig Airport",
    "icao": "KCRG",
    "lat": 30.3362998962,
    "lon": -81.5143966675
  },
  {
    "country": "United States",
    "state": "California",
    "city": "Novato",
    "name": "Marin County Airport - Gnoss Field",
    "icao": "KDVO",
    "lat": 38.143600463867,
    "lon": -122.55599975586
  },
  {
    "country": "United States",
    "state": "New York",
    "city": "Poughkeepsie",
    "name": "Dutchess County Airport",
    "icao": "KPOU",
    "lat": 41.6265983581543,
    "lon": -73.8842010498046
  },
  {
    "country": "United States",
    "state": "California",
    "city": "San Diego",
    "name": "Brown Field Municipal Airport",
    "icao": "KSDM",
    "lat": 32.572299957275,
    "lon": -116.98000335693
  },
  {
    "country": "United States",
    "state": "Texas",
    "city": "Dallas",
    "name": "Dallas Executive Airport",
    "icao": "KRBD",
    "lat": 32.6809005737,
    "lon": -96.8682022095
  },
  {
    "country": "United States",
    "state": "Arizona",
    "city": "Lake Havasu City",
    "name": "Lake Havasu City Airport",
    "icao": "KHII",
    "lat": 34.571098,
    "lon": -114.358002
  },
  {
    "country": "United States",
    "state": "California",
    "city": "Torrance",
    "name": "Zamperini Field",
    "icao": "KTOA",
    "lat": 33.803398132324,
    "lon": -118.33999633789
  },
  {
    "country": "United States",
    "state": "Illinois",
    "city": "Chicago/Rockford",
    "name": "Chicago Rockford International Airport",
    "icao": "KRFD",
    "lat": 42.1954002380371,
    "lon": -89.0971984863281
  },
  {
    "country": "United States",
    "state": "North Carolina",
    "city": "Fayetteville",
    "name": "Fayetteville Regional Grannis Field",
    "icao": "KFAY",
    "lat": 34.9911994934082,
    "lon": -78.8803024291992
  },
  {
    "country": "United States",
    "state": "Wisconsin",
    "city": "La Crosse",
    "name": "La Crosse Municipal Airport",
    "icao": "KLSE",
    "lat": 43.879002,
    "lon": -91.256699
  },
  {
    "country": "United States",
    "state": "Washington",
    "city": "Pasco",
    "name": "Tri Cities Airport",
    "icao": "KPSC",
    "lat": 46.2647018432617,
    "lon": -119.119003295898
  },
  {
    "country": "United States",
    "state": "Georgia",
    "city": "Atlanta",
    "name": "Fulton County Airport Brown Field",
    "icao": "KFTY",
    "lat": 33.7790985107,
    "lon": -84.5214004517
  },
  {
    "country": "United States",
    "state": "Arizona",
    "city": "Casa Grande",
    "name": "Casa Grande Municipal Airport",
    "icao": "KCGZ",
    "lat": 32.954899,
    "lon": -111.766998
  },
  {
    "country": "United States",
    "state": "California",
    "city": "Chino",
    "name": "Chino Airport",
    "icao": "KCNO",
    "lat": 33.97470093,
    "lon": -117.637001
  },
  {
    "country": "United States",
    "state": "Florida",
    "city": "Punta Gorda",
    "name": "Charlotte County Airport",
    "icao": "KPGD",
    "lat": 26.920200350000002,
    "lon": -81.9905014
  },
  {
    "country": "United States",
    "state": "Arkansas",
    "city": "Fort Smith",
    "name": "Fort Smith Regional Airport",
    "icao": "KFSM",
    "lat": 35.3366012573242,
    "lon": -94.3674011230468
  },
  {
    "country": "United States",
    "state": "Georgia",
    "city": "Athens",
    "name": "Athens Ben Epps Airport",
    "icao": "KAHN",
    "lat": 33.9486007690429,
    "lon": -83.326301574707
  },
  {
    "country": "United States",
    "state": "North Dakota",
    "city": "Grand Forks",
    "name": "Grand Forks International Airport",
    "icao": "KGFK",
    "lat": 47.949299,
    "lon": -97.176102
  },
  {
    "country": "United States",
    "state": "California",
    "city": "Blythe",
    "name": "Blythe Airport",
    "icao": "KBLH",
    "lat": 33.6192016602,
    "lon": -114.717002869
  },
  {
    "country": "United States",
    "state": "California",
    "city": "Red Bluff",
    "name": "Red Bluff Municipal Airport",
    "icao": "KRBL",
    "lat": 40.1506996155,
    "lon": -122.251998901
  },
  {
    "country": "United States",
    "state": "Georgia",
    "city": "St Simons Island",
    "name": "St Simons Island Airport",
    "icao": "KSSI",
    "lat": 31.1518,
    "lon": -81.391296
  },
  {
    "country": "United States",
    "state": "California",
    "city": "Byron",
    "name": "Byron Airport",
    "icao": "KC83",
    "lat": 37.8283996582031,
    "lon": -121.625999450683
  },
  {
    "country": "United States",
    "state": "Maryland",
    "city": "Frederick",
    "name": "Frederick Municipal Airport",
    "icao": "KFDK",
    "lat": 39.4175987243999,
    "lon": -77.3742980957
  },
  {
    "country": "United States",
    "state": "Minnesota",
    "city": "Minneapolis",
    "name": "Flying Cloud Airport",
    "icao": "KFCM",
    "lat": 44.8272018433,
    "lon": -93.4570999146
  },
  {
    "country": "United States",
    "state": "Wyoming",
    "city": "Casper",
    "name": "Casper-Natrona County International Airport",
    "icao": "KCPR",
    "lat": 42.908001,
    "lon": -106.463997
  },
  {
    "country": "United States",
    "state": "Texas",
    "city": "San Angelo",
    "name": "San Angelo Regional Mathis Field",
    "icao": "KSJT",
    "lat": 31.3577003479003,
    "lon": -100.496002197265
  },
  {
    "country": "United States",
    "state": "Pennsylvania",
    "city": "Williamsport",
    "name": "Williamsport Regional Airport",
    "icao": "KIPT",
    "lat": 41.2417984008789,
    "lon": -76.9210968017578
  },
  {
    "country": "United States",
    "state": "California",
    "city": "Riverside",
    "name": "Riverside Municipal Airport",
    "icao": "KRAL",
    "lat": 33.95190048,
    "lon": -117.4449997
  },
  {
    "country": "United States",
    "state": "California",
    "city": "Palm Springs",
    "name": "Jacqueline Cochran Regional Airport",
    "icao": "KTRM",
    "lat": 33.62670135498,
    "lon": -116.16000366211
  },
  {
    "country": "United States",
    "state": "New Hampshire",
    "city": "Nashua",
    "name": "Nashua Airport / Boire Field",
    "icao": "KASH",
    "lat": 42.7817,
    "lon": -71.514801
  },
  {
    "country": "United States",
    "state": "Arizona",
    "city": "Kingman",
    "name": "Kingman Airport",
    "icao": "KIGM",
    "lat": 35.2594985961914,
    "lon": -113.938003540039
  },
  {
    "country": "United States",
    "state": "California",
    "city": "Salinas",
    "name": "Salinas Municipal Airport",
    "icao": "KSNS",
    "lat": 36.662799835205,
    "lon": -121.60600280762
  },
  {
    "country": "United States",
    "state": "California",
    "city": "Merced",
    "name": "Castle Airport",
    "icao": "KMER",
    "lat": 37.38050079,
    "lon": -120.5680008
  },
  {
    "country": "United States",
    "state": "New Hampshire",
    "city": "Keene",
    "name": "Dillant Hopkins Airport",
    "icao": "KEEN",
    "lat": 42.8983993530273,
    "lon": -72.2707977294921
  },
  {
    "country": "United States",
    "state": "New Hampshire",
    "city": "Laconia / Gilford",
    "name": "Laconia Municipal Airport",
    "icao": "KLCI",
    "lat": 43.572701,
    "lon": -71.4189
  },
  {
    "country": "United States",
    "state": "Colorado",
    "city": "Leadville",
    "name": "Lake County Airport",
    "icao": "KLXV",
    "lat": 39.2202987671,
    "lon": -106.317001343
  },
  {
    "country": "United States",
    "state": "Massachusetts",
    "city": "Provincetown",
    "name": "Provincetown Municipal Airport",
    "icao": "KPVC",
    "lat": 42.0718994141,
    "lon": -70.2213973999
  },
  {
    "country": "United States",
    "state": "New York",
    "city": "Glens Falls",
    "name": "Floyd Bennett Memorial Airport",
    "icao": "KGFL",
    "lat": 43.3412017822,
    "lon": -73.6102981567
  },
  {
    "country": "United States",
    "state": "California",
    "city": "Chico",
    "name": "Chico Municipal Airport",
    "icao": "KCIC",
    "lat": 39.79539871,
    "lon": -121.8580017
  },
  {
    "country": "United States",
    "state": "California",
    "city": "San Martin",
    "name": "San Martin Airport",
    "icao": "KE16",
    "lat": 37.08160019,
    "lon": -121.5970001
  },
  {
    "country": "United States",
    "state": "Pennsylvania",
    "city": "Erie",
    "name": "Erie International Tom Ridge Field",
    "icao": "KERI",
    "lat": 42.0831270134,
    "lon": -80.1738667488
  },
  {
    "country": "United States",
    "state": "Florida",
    "city": "Valparaiso",
    "name": "Destin-Ft Walton Beach Airport",
    "icao": "KVPS",
    "lat": 30.4832,
    "lon": -86.525398
  },
  {
    "country": "United States",
    "state": "Alaska",
    "city": "Juneau",
    "name": "Juneau International Airport",
    "icao": "PAJN",
    "lat": 58.3549995422363,
    "lon": -134.57600402832
  },
  {
    "country": "United States",
    "state": "New Jersey",
    "city": "Morristown",
    "name": "Morristown Municipal Airport",
    "icao": "KMMU",
    "lat": 40.7994003295898,
    "lon": -74.4149017333984
  },
  {
    "country": "United States",
    "state": "Michigan",
    "city": "Pontiac",
    "name": "Oakland County International Airport",
    "icao": "KPTK",
    "lat": 42.665500640869,
    "lon": -83.420097351074
  },
  {
    "country": "United States",
    "state": "California",
    "city": "Hawthorne",
    "name": "Jack Northrop Field Hawthorne Municipal Airport",
    "icao": "KHHR",
    "lat": 33.922798,
    "lon": -118.334999
  },
  {
    "country": "United States",
    "state": "Illinois",
    "city": "Chicago/Prospect Heights/Wheeling",
    "name": "Chicago Executive Airport",
    "icao": "KPWK",
    "lat": 42.114222,
    "lon": -87.901494
  },
  {
    "country": "United States",
    "state": "California",
    "city": "Hollister",
    "name": "Hollister Municipal Airport",
    "icao": "CVH",
    "lat": 36.8932991028,
    "lon": -121.410003662
  },
  {
    "country": "United States",
    "state": "Florida",
    "city": "Stuart",
    "name": "Witham Field",
    "icao": "KSUA",
    "lat": 27.18169975,
    "lon": -80.22109985
  },
  {
    "country": "United States",
    "state": "Georgia",
    "city": "Columbus",
    "name": "Columbus Metropolitan Airport",
    "icao": "KCSG",
    "lat": 32.516300201416,
    "lon": -84.9389038085937
  },
  {
    "country": "United States",
    "state": "Nevada",
    "city": "Elko",
    "name": "Elko Regional Airport",
    "icao": "KEKO",
    "lat": 40.8249015808105,
    "lon": -115.791999816894
  },
  {
    "country": "United States",
    "state": "California",
    "city": "Sacramento",
    "name": "Mc Clellan Airfield",
    "icao": "KMCC",
    "lat": 38.66759872,
    "lon": -121.401001
  },
  {
    "country": "United States",
    "state": "Minnesota",
    "city": "Brainerd",
    "name": "Brainerd Lakes Regional Airport",
    "icao": "KBRD",
    "lat": 46.39830017,
    "lon": -94.13809967
  },
  {
    "country": "United States",
    "state": "Ohio",
    "city": "Batavia",
    "name": "Clermont County Airport",
    "icao": "KI69",
    "lat": 39.07839966,
    "lon": -84.21019745
  },
  {
    "country": "United States",
    "state": "Texas",
    "city": "Denton",
    "name": "Denton Municipal Airport",
    "icao": "KDTO",
    "lat": 33.2006988525,
    "lon": -97.1979980469
  },
  {
    "country": "United States",
    "state": "Colorado",
    "city": "Fort Collins/Loveland",
    "name": "Northern Colorado Regional Airport",
    "icao": "KFNL",
    "lat": 40.451804,
    "lon": -105.011
  },
  {
    "country": "United States",
    "state": "Florida",
    "city": "Venice",
    "name": "Venice Municipal Airport",
    "icao": "KVNC",
    "lat": 27.071599960327,
    "lon": -82.440299987793
  },
  {
    "country": "United States",
    "state": "Texas",
    "city": "Wichita Falls",
    "name": "Sheppard Air Force Base-Wichita Falls Municipal Airport",
    "icao": "KSPS",
    "lat": 33.9888,
    "lon": -98.491898
  },
  {
    "country": "United States",
    "state": "Wisconsin",
    "city": "Eau Claire",
    "name": "Chippewa Valley Regional Airport",
    "icao": "KEAU",
    "lat": 44.8657989501953,
    "lon": -91.4842987060546
  },
  {
    "country": "United States",
    "state": "New Hampshire",
    "city": "Lebanon",
    "name": "Lebanon Municipal Airport",
    "icao": "KLEB",
    "lat": 43.6260986327999,
    "lon": -72.3041992188
  },
  {
    "country": "United States",
    "state": "Kansas",
    "city": "Salina",
    "name": "Salina Municipal Airport",
    "icao": "KSLN",
    "lat": 38.7910003662109,
    "lon": -97.6521987915039
  },
  {
    "country": "United States",
    "state": "Ohio",
    "city": "Columbus",
    "name": "Rickenbacker International Airport",
    "icao": "KLCK",
    "lat": 39.813801,
    "lon": -82.927803
  },
  {
    "country": "United States",
    "state": "Minnesota",
    "city": "St Paul",
    "name": "St Paul Downtown Holman Field",
    "icao": "KSTP",
    "lat": 44.9345016479492,
    "lon": -93.0599975585937
  },
  {
    "country": "United States",
    "state": "Florida",
    "city": "Fort Myers",
    "name": "Page Field",
    "icao": "KFMY",
    "lat": 26.58659935,
    "lon": -81.8632965087999
  },
  {
    "country": "United States",
    "state": "Texas",
    "city": "Brenham",
    "name": "Brenham Municipal Airport",
    "icao": "K11R",
    "lat": 30.21899986,
    "lon": -96.3742981
  },
  {
    "country": "United States",
    "state": "Wisconsin",
    "city": "Janesville",
    "name": "Southern Wisconsin Regional Airport",
    "icao": "KJVL",
    "lat": 42.620300293,
    "lon": -89.0416030884
  },
  {
    "country": "United States",
    "state": "California",
    "city": "Visalia",
    "name": "Visalia Municipal Airport",
    "icao": "KVIS",
    "lat": 36.3186988831,
    "lon": -119.392997742
  },
  {
    "country": "United States",
    "state": "Michigan",
    "city": "Saginaw",
    "name": "MBS International Airport",
    "icao": "KMBS",
    "lat": 43.532901763916,
    "lon": -84.0795974731445
  },
  {
    "country": "United States",
    "state": "Texas",
    "city": "Longview",
    "name": "East Texas Regional Airport",
    "icao": "KGGG",
    "lat": 32.3839988708496,
    "lon": -94.7115020751953
  },
  {
    "country": "United States",
    "state": "Montana",
    "city": "Kalispell",
    "name": "Glacier Park International Airport",
    "icao": "KGPI",
    "lat": 48.3105010986328,
    "lon": -114.255996704101
  },
  {
    "country": "United States",
    "state": "Washington",
    "city": "Olympia",
    "name": "Olympia Regional Airport",
    "icao": "KOLM",
    "lat": 46.9693985,
    "lon": -122.9029999
  },
  {
    "country": "United States",
    "state": "Texas",
    "city": "Houston",
    "name": "Conroe-North Houston Regional Airport",
    "icao": "KCXO",
    "lat": 30.351801,
    "lon": -95.414497
  },
  {
    "country": "United States",
    "state": "Massachusetts",
    "city": "Lawrence",
    "name": "Lawrence Municipal Airport",
    "icao": "KLWM",
    "lat": 42.7172012328999,
    "lon": -71.1233978271
  },
  {
    "country": "United States",
    "state": "California",
    "city": "Apple Valley",
    "name": "Apple Valley Airport",
    "icao": "KAPV",
    "lat": 34.5752983092999,
    "lon": -117.185997009
  },
  {
    "country": "United States",
    "state": "Florida",
    "city": "Brooksville",
    "name": "Hernando County Airport",
    "icao": "KBKV",
    "lat": 28.47360039,
    "lon": -82.45539856
  },
  {
    "country": "United States",
    "state": "California",
    "city": "Lakeport",
    "name": "Lampson Field",
    "icao": "K1O2",
    "lat": 38.9906005859,
    "lon": -122.901000977
  },
  {
    "country": "United States",
    "state": "California",
    "city": "Rio Vista",
    "name": "Rio Vista Municipal Airport",
    "icao": "KO88",
    "lat": 38.1934013366699,
    "lon": -121.704002380371
  },
  {
    "country": "United States",
    "state": "Louisiana",
    "city": "Alexandria",
    "name": "Alexandria International Airport",
    "icao": "KAEX",
    "lat": 31.3274002075195,
    "lon": -92.5497970581054
  },
  {
    "country": "United States",
    "state": "Missouri",
    "city": "Columbia",
    "name": "Columbia Regional Airport",
    "icao": "KCOU",
    "lat": 38.8181,
    "lon": -92.219597
  },
  {
    "country": "United States",
    "state": "Texas",
    "city": "Fort Worth",
    "name": "Fort Worth Alliance Airport",
    "icao": "KAFW",
    "lat": 32.9875984192,
    "lon": -97.3188018799
  },
  {
    "country": "United States",
    "state": "New Hampshire",
    "city": "Concord",
    "name": "Concord Municipal Airport",
    "icao": "KCON",
    "lat": 43.20270157,
    "lon": -71.50229645
  },
  {
    "country": "United States",
    "state": "Pennsylvania",
    "city": "Philadelphia",
    "name": "Northeast Philadelphia Airport",
    "icao": "KPNE",
    "lat": 40.081902,
    "lon": -75.010597
  },
  {
    "country": "United States",
    "state": "Oklahoma",
    "city": "Tulsa",
    "name": "Richard Lloyd Jones Jr Airport",
    "icao": "KRVS",
    "lat": 36.039600372314,
    "lon": -95.984596252441
  },
  {
    "country": "United States",
    "state": "New Mexico",
    "city": "Albuquerque",
    "name": "Double Eagle II Airport",
    "icao": "KAEG",
    "lat": 35.1451988220214,
    "lon": -106.794998168945
  },
  {
    "country": "United States",
    "state": "Connecticut",
    "city": "Danbury",
    "name": "Danbury Municipal Airport",
    "icao": "KDXR",
    "lat": 41.3714981078999,
    "lon": -73.4822006225999
  },
  {
    "country": "United States",
    "state": "Minnesota",
    "city": "Minneapolis",
    "name": "Anoka County-Blaine (Janes Field) Airport",
    "icao": "KANE",
    "lat": 45.145,
    "lon": -93.211401
  },
  {
    "country": "United States",
    "state": "Virginia",
    "city": "Williamsburg",
    "name": "Williamsburg Jamestown Airport",
    "icao": "KJGG",
    "lat": 37.239200592041,
    "lon": -76.7161026000976
  },
  {
    "country": "United States",
    "state": "South Dakota",
    "city": "Pierre",
    "name": "Pierre Regional Airport",
    "icao": "KPIR",
    "lat": 44.38270187,
    "lon": -100.2860031
  },
  {
    "country": "United States",
    "state": "Ohio",
    "city": "Youngstown/Warren",
    "name": "Youngstown Warren Regional Airport",
    "icao": "KYNG",
    "lat": 41.26070023,
    "lon": -80.67910004
  },
  {
    "country": "United States",
    "state": "Texas",
    "city": "Houston",
    "name": "Ellington Airport",
    "icao": "KEFD",
    "lat": 29.6072998047,
    "lon": -95.1587982178
  },
  {
    "country": "United States",
    "state": "Washington",
    "city": "Pullman/Moscow",
    "name": "Pullman Moscow Regional Airport",
    "icao": "KPUW",
    "lat": 46.7439,
    "lon": -117.110001
  },
  {
    "country": "United States",
    "state": "California",
    "city": "San Bernardino",
    "name": "San Bernardino International Airport",
    "icao": "KSBD",
    "lat": 34.0954017639,
    "lon": -117.23500061
  },
  {
    "country": "United States",
    "state": "Michigan",
    "city": "Ann Arbor",
    "name": "Ann Arbor Municipal Airport",
    "icao": "KARB",
    "lat": 42.2229995728,
    "lon": -83.7455978393999
  },
  {
    "country": "United States",
    "state": "California",
    "city": "Borrego Springs",
    "name": "Borrego Valley Airport",
    "icao": "KL08",
    "lat": 33.2589988708,
    "lon": -116.320999146
  },
  {
    "country": "United States",
    "state": "Wisconsin",
    "city": "Fond du Lac",
    "name": "Fond du Lac County Airport",
    "icao": "KFLD",
    "lat": 43.7711982727,
    "lon": -88.4884033203
  },
  {
    "country": "United States",
    "state": "California",
    "city": "Mariposa",
    "name": "Mariposa Yosemite Airport",
    "icao": "KMPI",
    "lat": 37.5108985901,
    "lon": -120.040000916
  },
  {
    "country": "United States",
    "state": "California",
    "city": "Oceano",
    "name": "Oceano County Airport",
    "icao": "L52",
    "lat": 35.1013984680175,
    "lon": -120.622001647949
  },
  {
    "country": "United States",
    "state": "California",
    "city": "Willows",
    "name": "Willows Glenn County Airport",
    "icao": "KWLW",
    "lat": 39.51639938,
    "lon": -122.2180023
  },
  {
    "country": "United States",
    "state": "Texas",
    "city": "Beaumont/Port Arthur",
    "name": "Southeast Texas Regional Airport",
    "icao": "KBPT",
    "lat": 29.9507999420166,
    "lon": -94.0206985473632
  },
  {
    "country": "United States",
    "state": "Kansas",
    "city": "Manhattan",
    "name": "Manhattan Regional Airport",
    "icao": "KMHK",
    "lat": 39.140998840332,
    "lon": -96.6707992553711
  },
  {
    "country": "United States",
    "state": "Oregon",
    "city": "Redmond",
    "name": "Roberts Field",
    "icao": "KRDM",
    "lat": 44.2541008,
    "lon": -121.1500015
  },
  {
    "country": "United States",
    "state": "Delaware",
    "city": "Wilmington",
    "name": "New Castle Airport",
    "icao": "KILG",
    "lat": 39.67869949,
    "lon": -75.60649872
  },
  {
    "country": "United States",
    "state": "Montana",
    "city": "West Yellowstone",
    "name": "Yellowstone Airport",
    "icao": "KWYS",
    "lat": 44.68840027,
    "lon": -111.1179962
  },
  {
    "country": "United States",
    "state": "Oregon",
    "city": "Aurora",
    "name": "Aurora State Airport",
    "icao": "KUAO",
    "lat": 45.2471008300781,
    "lon": -122.769996643066
  },
  {
    "country": "United States",
    "state": "Ohio",
    "city": "Findlay",
    "name": "Findlay Airport",
    "icao": "KFDY",
    "lat": 41.0135002136,
    "lon": -83.6687011719
  },
  {
    "country": "United States",
    "state": "Texas",
    "city": "San Marcos",
    "name": "San Marcos Regional Airport",
    "icao": "KHYI",
    "lat": 29.8927,
    "lon": -97.862999
  },
  {
    "country": "United States",
    "state": "Oregon",
    "city": "Bend",
    "name": "Bend Municipal Airport",
    "icao": "KBDN",
    "lat": 44.09479904,
    "lon": -121.2009964
  },
  {
    "country": "United States",
    "state": "California",
    "city": "Mojave",
    "name": "Mojave Airport",
    "icao": "KMHV",
    "lat": 35.05939865,
    "lon": -118.1520004
  },
  {
    "country": "United States",
    "state": "Oregon",
    "city": "Scappoose",
    "name": "Scappoose Industrial Airpark",
    "icao": "KSPB",
    "lat": 45.7709999084472,
    "lon": -122.861999511718
  },
  {
    "country": "United States",
    "state": "Florida",
    "city": "St Petersburg",
    "name": "Albert Whitted Airport",
    "icao": "KSPG",
    "lat": 27.7651,
    "lon": -82.626999
  },
  {
    "country": "United States",
    "state": "Kansas",
    "city": "Garden City",
    "name": "Garden City Regional Airport",
    "icao": "KGCK",
    "lat": 37.9275016785,
    "lon": -100.723999023
  },
  {
    "country": "United States",
    "state": "Kentucky",
    "city": "Paducah",
    "name": "Barkley Regional Airport",
    "icao": "KPAH",
    "lat": 37.0607986450195,
    "lon": -88.7738037109375
  },
  {
    "country": "United States",
    "state": "Iowa",
    "city": "Waterloo",
    "name": "Waterloo Regional Airport",
    "icao": "KALO",
    "lat": 42.5570983886718,
    "lon": -92.4002990722656
  },
  {
    "country": "United States",
    "state": "California",
    "city": "Needles",
    "name": "Needles Airport",
    "icao": "KEED",
    "lat": 34.7663002014,
    "lon": -114.623001099
  },
  {
    "country": "United States",
    "state": "Utah",
    "city": "Wendover",
    "name": "Wendover Airport",
    "icao": "KENV",
    "lat": 40.7187004089,
    "lon": -114.03099823
  },
  {
    "country": "United States",
    "state": "Illinois",
    "city": "Cahokia/St Louis",
    "name": "St Louis Downtown Airport",
    "icao": "KCPS",
    "lat": 38.5707015991,
    "lon": -90.1561965942
  },
  {
    "country": "United States",
    "state": "South Carolina",
    "city": "Charleston",
    "name": "Charleston Executive Airport",
    "icao": "KJZI",
    "lat": 32.7009010314941,
    "lon": -80.0028991699218
  },
  {
    "country": "United States",
    "state": "Washington",
    "city": "Eastsound",
    "name": "Orcas Island Airport",
    "icao": "KORS",
    "lat": 48.7081985474,
    "lon": -122.910003662
  },
  {
    "country": "United States",
    "state": "Texas",
    "city": "Fredericksburg",
    "name": "Gillespie County Airport",
    "icao": "KT82",
    "lat": 30.243200302124,
    "lon": -98.9092025756836
  },
  {
    "country": "United States",
    "state": "Virginia",
    "city": "Norfolk",
    "name": "Hampton Roads Executive Airport",
    "icao": "KPVG",
    "lat": 36.780201,
    "lon": -76.448799
  },
  {
    "country": "United States",
    "state": "California",
    "city": "Palm Springs",
    "name": "Bermuda Dunes Airport",
    "icao": "KUDD",
    "lat": 33.748401641846,
    "lon": -116.27500152588
  },
  {
    "country": "United States",
    "state": "Maine",
    "city": "Sanford",
    "name": "Sanford Seacoast Regional Airport",
    "icao": "KSFM",
    "lat": 43.393901824951,
    "lon": -70.708000183105
  },
  {
    "country": "United States",
    "state": "Arizona",
    "city": "Tucson",
    "name": "Marana Regional Airport",
    "icao": "KAVQ",
    "lat": 32.4095993042,
    "lon": -111.21800231899999
  },
  {
    "country": "United States",
    "state": "North Carolina",
    "city": "Winston Salem",
    "name": "Smith Reynolds Airport",
    "icao": "KINT",
    "lat": 36.1337013244628,
    "lon": -80.2220001220703
  },
  {
    "country": "United States",
    "state": "New Mexico",
    "city": "Farmington",
    "name": "Four Corners Regional Airport",
    "icao": "KFMN",
    "lat": 36.7411994933999,
    "lon": -108.230003357
  },
  {
    "country": "United States",
    "state": "Wisconsin",
    "city": "Kenosha",
    "name": "Kenosha Regional Airport",
    "icao": "KENW",
    "lat": 42.59569931,
    "lon": -87.92780304
  },
  {
    "country": "United States",
    "state": "Georgia",
    "city": "Atlanta",
    "name": "Peachtree City Falcon Field",
    "icao": "KFFC",
    "lat": 33.3572998046875,
    "lon": -84.5718002319336
  },
  {
    "country": "United States",
    "state": "Illinois",
    "city": "Chicago/Schaumburg",
    "name": "Schaumburg Regional Airport",
    "icao": "K06C",
    "lat": 41.9892997742,
    "lon": -88.1011962891
  },
  {
    "country": "United States",
    "state": "California",
    "city": "Death Valley National Park",
    "name": "Furnace Creek Airport",
    "icao": "KL06",
    "lat": 36.463799,
    "lon": -116.880997
  },
  {
    "country": "United States",
    "state": "Florida",
    "city": "Hollywood",
    "name": "North Perry Airport",
    "icao": "KHWO",
    "lat": 26.0012,
    "lon": -80.2407
  },
  {
    "country": "United States",
    "state": "Indiana",
    "city": "Indianapolis",
    "name": "Eagle Creek Airpark",
    "icao": "KEYE",
    "lat": 39.830699920654,
    "lon": -86.294403076172
  },
  {
    "country": "United States",
    "state": "California",
    "city": "Lincoln",
    "name": "Lincoln Regional Karl Harder Field",
    "icao": "KLHM",
    "lat": 38.9091987609863,
    "lon": -121.350997924804
  },
  {
    "country": "United States",
    "state": "California",
    "city": "Los Angeles",
    "name": "Whiteman Airport",
    "icao": "KWHP",
    "lat": 34.2593002319,
    "lon": -118.413002014
  },
  {
    "country": "United States",
    "state": "Tennessee",
    "city": "Sevierville",
    "name": "Gatlinburg-Pigeon Forge Airport",
    "icao": "KGKT",
    "lat": 35.85779953,
    "lon": -83.5287017821999
  },
  {
    "country": "United States",
    "state": "Massachusetts",
    "city": "Stow",
    "name": "Minute Man Air Field",
    "icao": "6B6",
    "lat": 42.4604988098144,
    "lon": -71.5178985595703
  },
  {
    "country": "United States",
    "state": "Alabama",
    "city": "Dothan",
    "name": "Dothan Regional Airport",
    "icao": "KDHN",
    "lat": 31.3213005065917,
    "lon": -85.4496002197265
  },
  {
    "country": "United States",
    "state": "Michigan",
    "city": "Pellston",
    "name": "Pellston Regional Airport of Emmet County Airport",
    "icao": "KPLN",
    "lat": 45.57089996,
    "lon": -84.79669952
  },
  {
    "country": "United States",
    "state": "Vermont",
    "city": "Rutland",
    "name": "Rutland - Southern Vermont Regional Airport",
    "icao": "KRUT",
    "lat": 43.52939987,
    "lon": -72.94960022
  },
  {
    "country": "United States",
    "state": "Ohio",
    "city": "Mansfield",
    "name": "Mansfield Lahm Regional Airport",
    "icao": "KMFD",
    "lat": 40.8213996886999,
    "lon": -82.5166015625
  },
  {
    "country": "United States",
    "state": "Alaska",
    "city": "Anchorage",
    "name": "Merrill Field",
    "icao": "PAMR",
    "lat": 61.2135009765625,
    "lon": -149.843994140625
  },
  {
    "country": "United States",
    "state": "Kansas",
    "city": "Goodland",
    "name": "Renner Field-Goodland Municipal Airport",
    "icao": "KGLD",
    "lat": 39.37060165,
    "lon": -101.6989975
  },
  {
    "country": "United States",
    "state": "Texas",
    "city": "Lufkin",
    "name": "Angelina County Airport",
    "icao": "KLFK",
    "lat": 31.2339992523,
    "lon": -94.75
  },
  {
    "country": "United States",
    "state": "Wisconsin",
    "city": "Mosinee",
    "name": "Central Wisconsin Airport",
    "icao": "KCWA",
    "lat": 44.7775993347,
    "lon": -89.6668014526
  },
  {
    "country": "United States",
    "state": "Alabama",
    "city": "Bessemer",
    "name": "Bessemer Airport",
    "icao": "KEKY",
    "lat": 33.31290054,
    "lon": -86.92590332
  },
  {
    "country": "United States",
    "state": "Georgia",
    "city": "Cartersville",
    "name": "Cartersville Airport",
    "icao": "KVPC",
    "lat": 34.1231002807617,
    "lon": -84.8487014770507
  },
  {
    "country": "United States",
    "state": "New York",
    "city": "East Hampton",
    "name": "East Hampton Airport",
    "icao": "KHTO",
    "lat": 40.95959854,
    "lon": -72.25180054
  },
  {
    "country": "United States",
    "state": "Georgia",
    "city": "Gainesville",
    "name": "Lee Gilmer Memorial Airport",
    "icao": "KGVL",
    "lat": 34.27259827,
    "lon": -83.8302002
  },
  {
    "country": "United States",
    "state": "Colorado",
    "city": "Hayden",
    "name": "Yampa Valley Airport",
    "icao": "KHDN",
    "lat": 40.48120117,
    "lon": -107.2180023
  },
  {
    "country": "United States",
    "state": "Texas",
    "city": "Kerrville",
    "name": "Kerrville Municipal Louis Schreiner Field",
    "icao": "KERV",
    "lat": 29.9766998291,
    "lon": -99.0857009887999
  },
  {
    "country": "United States",
    "state": "California",
    "city": "Mammoth Lakes",
    "name": "Mammoth Yosemite Airport",
    "icao": "KMMH",
    "lat": 37.62409973,
    "lon": -118.8379974
  },
  {
    "country": "United States",
    "state": "New York",
    "city": "Montauk",
    "name": "Montauk Airport",
    "icao": "KMTP",
    "lat": 41.0765,
    "lon": -71.920797
  },
  {
    "country": "United States",
    "state": "Florida",
    "city": "Okeechobee",
    "name": "Okeechobee County Airport",
    "icao": "KOBE",
    "lat": 27.2628002166999,
    "lon": -80.8498001099
  },
  {
    "country": "United States",
    "state": "Nevada",
    "city": "Reno",
    "name": "Reno-Stead Airport",
    "icao": "K4SD",
    "lat": 39.6674003601,
    "lon": -119.875999451
  },
  {
    "country": "United States",
    "state": "Georgia",
    "city": "Albany",
    "name": "Southwest Georgia Regional Airport",
    "icao": "KABY",
    "lat": 31.5354995727539,
    "lon": -84.1945037841796
  },
  {
    "country": "United States",
    "state": "Washington",
    "city": "Port Angeles",
    "name": "William R Fairchild International Airport",
    "icao": "KCLM",
    "lat": 48.1202011108398,
    "lon": -123.5
  },
  {
    "country": "United States",
    "state": "New York",
    "city": "Watertown",
    "name": "Watertown International Airport",
    "icao": "KART",
    "lat": 43.991901397705,
    "lon": -76.0216979980468
  },
  {
    "country": "United States",
    "state": "Washington",
    "city": "Spokane",
    "name": "Felts Field",
    "icao": "KSFF",
    "lat": 47.682800292969,
    "lon": -117.32299804688
  },
  {
    "country": "United States",
    "state": "Oregon",
    "city": "Corvallis",
    "name": "Corvallis Municipal Airport",
    "icao": "KCVO",
    "lat": 44.49720001,
    "lon": -123.2900009
  },
  {
    "country": "United States",
    "state": "Oklahoma",
    "city": "Stillwater",
    "name": "Stillwater Regional Airport",
    "icao": "KSWO",
    "lat": 36.161201477051,
    "lon": -97.08570098877
  },
  {
    "country": "United States",
    "state": "Nevada",
    "city": "Tonopah",
    "name": "Tonopah Airport",
    "icao": "KTPH",
    "lat": 38.06019974,
    "lon": -117.086998
  },
  {
    "country": "United States",
    "state": "Alabama",
    "city": "Auburn",
    "name": "Auburn University Regional Airport",
    "icao": "KAUO",
    "lat": 32.615101,
    "lon": -85.433998
  },
  {
    "country": "United States",
    "state": "Ohio",
    "city": "Columbus",
    "name": "Bolton Field",
    "icao": "KTZR",
    "lat": 39.9011993408203,
    "lon": -83.1369018554687
  },
  {
    "country": "United States",
    "state": "California",
    "city": "Davis",
    "name": "University Airport",
    "icao": "KEDU",
    "lat": 38.5315017700195,
    "lon": -121.786003112792
  },
  {
    "country": "United States",
    "state": "Arizona",
    "city": "Glendale",
    "name": "Glendale Municipal Airport",
    "icao": "KGEU",
    "lat": 33.5269012451171,
    "lon": -112.294998168945
  },
  {
    "country": "United States",
    "state": "Florida",
    "city": "Immokalee",
    "name": "Immokalee Regional Airport",
    "icao": "KIMM",
    "lat": 26.43320084,
    "lon": -81.40100098
  },
  {
    "country": "United States",
    "state": "Tennessee",
    "city": "Knoxville",
    "name": "Knoxville Downtown Island Airport",
    "icao": "KDKX",
    "lat": 35.9639015197753,
    "lon": -83.8739013671875
  },
  {
    "country": "United States",
    "state": "California",
    "city": "Lodi",
    "name": "Lodi Airport",
    "icao": "K1O3",
    "lat": 38.20240021,
    "lon": -121.2679977
  },
  {
    "country": "United States",
    "state": "Massachusetts",
    "city": "Northampton",
    "name": "Northampton Airport",
    "icao": "K7B2",
    "lat": 42.3280983,
    "lon": -72.61139679
  },
  {
    "country": "United States",
    "state": "Michigan",
    "city": "Port Huron",
    "name": "St Clair County International Airport",
    "icao": "KPHN",
    "lat": 42.9109993,
    "lon": -82.52890015
  },
  {
    "country": "United States",
    "state": "Texas",
    "city": "Rockport",
    "name": "Aransas County Airport",
    "icao": "KRKP",
    "lat": 28.0867996216,
    "lon": -97.0446014404
  },
  {
    "country": "United States",
    "state": "Texas",
    "city": "Sulphur Springs",
    "name": "Sulphur Springs Municipal Airport",
    "icao": "KSLR",
    "lat": 33.159801483154,
    "lon": -95.621101379395
  },
  {
    "country": "United States",
    "state": "Rhode Island",
    "city": "Westerly",
    "name": "Westerly State Airport",
    "icao": "KWST",
    "lat": 41.3496017456,
    "lon": -71.8033981323
  },
  {
    "country": "United States",
    "state": "Wyoming",
    "city": "Laramie",
    "name": "Laramie Regional Airport",
    "icao": "KLAR",
    "lat": 41.3120994567871,
    "lon": -105.675003051757
  },
  {
    "country": "United States",
    "state": "North Carolina",
    "city": "Hickory",
    "name": "Hickory Regional Airport",
    "icao": "KHKY",
    "lat": 35.74110031,
    "lon": -81.38950348
  },
  {
    "country": "United States",
    "state": "Oregon",
    "city": "Portland",
    "name": "Portland Troutdale Airport",
    "icao": "KTTD",
    "lat": 45.54940032959,
    "lon": -122.40100097656
  },
  {
    "country": "United States",
    "state": "Oklahoma",
    "city": "Bartlesville",
    "name": "Bartlesville Municipal Airport",
    "icao": "KBVO",
    "lat": 36.76250076,
    "lon": -96.01119995
  },
  {
    "country": "United States",
    "state": "Illinois",
    "city": "Chicago",
    "name": "Lansing Municipal Airport",
    "icao": "KIGQ",
    "lat": 41.5349006652832,
    "lon": -87.5295028686523
  },
  {
    "country": "United States",
    "state": "Ohio",
    "city": "Delaware",
    "name": "Delaware Municipal Airport",
    "icao": "KDLZ",
    "lat": 40.2797012329101,
    "lon": -83.1147994995117
  },
  {
    "country": "United States",
    "state": "Maryland",
    "city": "Easton",
    "name": "Easton Airport / Newnam Field",
    "icao": "KESN",
    "lat": 38.804199,
    "lon": -76.069
  },
  {
    "country": "United States",
    "state": "Wisconsin",
    "city": "Juneau",
    "name": "Dodge County Airport",
    "icao": "KUNU",
    "lat": 43.42660141,
    "lon": -88.70320129
  },
  {
    "country": "United States",
    "state": "Missouri",
    "city": "Lee's Summit",
    "name": "Lee's Summit Municipal Airport",
    "icao": "KLXT",
    "lat": 38.95970154,
    "lon": -94.37139893
  },
  {
    "country": "United States",
    "state": "Florida",
    "city": "Merritt Island",
    "name": "Merritt Island Airport",
    "icao": "KCOI",
    "lat": 28.3416004180999,
    "lon": -80.6855010986
  },
  {
    "country": "United States",
    "state": "Texas",
    "city": "New Braunfels",
    "name": "New Braunfels Municipal Airport",
    "icao": "KBAZ",
    "lat": 29.7045,
    "lon": -98.042198
  },
  {
    "country": "United States",
    "state": "Oklahoma",
    "city": "Norman",
    "name": "University of Oklahoma Westheimer Airport",
    "icao": "KOUN",
    "lat": 35.2456,
    "lon": -97.472099
  },
  {
    "country": "United States",
    "state": "California",
    "city": "Oroville",
    "name": "Oroville Municipal Airport",
    "icao": "KOVE",
    "lat": 39.487800598145,
    "lon": -121.62200164795
  },
  {
    "country": "United States",
    "state": "California",
    "city": "Sonoma",
    "name": "Sonoma Skypark Airport",
    "icao": "0Q9",
    "lat": 38.2577018737793,
    "lon": -122.43399810791
  },
  {
    "country": "United States",
    "state": "California",
    "city": "Woodland",
    "name": "Watts Woodland Airport",
    "icao": "KO41",
    "lat": 38.673901,
    "lon": -121.872002
  },
  {
    "country": "United States",
    "state": "Mississippi",
    "city": "Tupelo",
    "name": "Tupelo Regional Airport",
    "icao": "KTUP",
    "lat": 34.2681007385253,
    "lon": -88.7698974609375
  },
  {
    "country": "United States",
    "state": "Kansas",
    "city": "Topeka",
    "name": "Topeka Regional Airport - Forbes Field",
    "icao": "KFOE",
    "lat": 38.9509010314999,
    "lon": -95.6635971069
  },
  {
    "country": "United States",
    "state": "Kentucky",
    "city": "London",
    "name": "London-Corbin Airport/Magee Field",
    "icao": "KLOZ",
    "lat": 37.0821990967,
    "lon": -84.0848999023
  },
  {
    "country": "United States",
    "state": "Maryland",
    "city": "Hagerstown",
    "name": "Hagerstown Regional Richard A Henson Field",
    "icao": "KHGR",
    "lat": 39.707901,
    "lon": -77.72949982
  },
  {
    "country": "United States",
    "state": "Tennessee",
    "city": "Smyrna",
    "name": "Smyrna Airport",
    "icao": "KMQY",
    "lat": 36.0089988708,
    "lon": -86.5201034546
  },
  {
    "country": "United States",
    "state": "New Mexico",
    "city": "Deming",
    "name": "Deming Municipal Airport",
    "icao": "KDMN",
    "lat": 32.262298584,
    "lon": -107.721000671
  },
  {
    "country": "United States",
    "state": "West Virginia",
    "city": "Lewisburg",
    "name": "Greenbrier Valley Airport",
    "icao": "KLWB",
    "lat": 37.8582992554,
    "lon": -80.3994979858
  },
  {
    "country": "United States",
    "state": "Arizona",
    "city": "Nogales",
    "name": "Nogales International Airport",
    "icao": "KOLS",
    "lat": 31.4177,
    "lon": -110.848
  },
  {
    "country": "United States",
    "state": "Oklahoma",
    "city": "Ada",
    "name": "Ada Regional Airport",
    "icao": "KADH",
    "lat": 34.804298,
    "lon": -96.671303
  },
  {
    "country": "United States",
    "state": "New Jersey",
    "city": "Belmar/Farmingdale",
    "name": "Monmouth Executive Airport",
    "icao": "KBLM",
    "lat": 40.18690109,
    "lon": -74.12490082
  },
  {
    "country": "United States",
    "state": "California",
    "city": "Chester",
    "name": "Rogers Field",
    "icao": "KO05",
    "lat": 40.2823982238769,
    "lon": -121.240997314453
  },
  {
    "country": "United States",
    "state": "Arizona",
    "city": "Cottonwood",
    "name": "Cottonwood Airport",
    "icao": "KP52",
    "lat": 34.7299995422,
    "lon": -112.035003662
  },
  {
    "country": "United States",
    "state": "Arizona",
    "city": "Gila Bend",
    "name": "Gila Bend Municipal Airport",
    "icao": "KE63",
    "lat": 32.95809937,
    "lon": -112.6780014
  },
  {
    "country": "United States",
    "state": "Colorado",
    "city": "Gunnison",
    "name": "Gunnison Crested Butte Regional Airport",
    "icao": "KGUC",
    "lat": 38.53390121,
    "lon": -106.9329987
  },
  {
    "country": "United States",
    "state": "Colorado",
    "city": "Lamar",
    "name": "Southeast Colorado Regional Airport",
    "icao": "KLAA",
    "lat": 38.064852,
    "lon": -102.683201
  },
  {
    "country": "United States",
    "state": "Minnesota",
    "city": "Mankato",
    "name": "Mankato Regional Airport",
    "icao": "KMKT",
    "lat": 44.22159958,
    "lon": -93.91870117
  },
  {
    "country": "United States",
    "state": "New York",
    "city": "Millbrook",
    "name": "Sky Acres Airport",
    "icao": "K44N",
    "lat": 41.70740128,
    "lon": -73.73799896
  },
  {
    "country": "United States",
    "state": "Massachusetts",
    "city": "Plymouth",
    "name": "Plymouth Municipal Airport",
    "icao": "KPYM",
    "lat": 41.909,
    "lon": -70.728798
  },
  {
    "country": "United States",
    "state": "Texas",
    "city": "Stephenville",
    "name": "Stephenville Clark Regional Airport",
    "icao": "KSEP",
    "lat": 32.215301513672,
    "lon": -98.177696228027
  },
  {
    "country": "United States",
    "state": "Virginia",
    "city": "Suffolk",
    "name": "Suffolk Executive Airport",
    "icao": "KSFQ",
    "lat": 36.6823997497558,
    "lon": -76.6018981933593
  },
  {
    "country": "United States",
    "state": "Kansas",
    "city": "Wichita",
    "name": "Colonel James Jabara Airport",
    "icao": "KAAO",
    "lat": 37.74760056,
    "lon": -97.22109985
  },
  {
    "country": "United States",
    "state": "Florida",
    "city": "Williston",
    "name": "Williston Municipal Airport",
    "icao": "KX60",
    "lat": 29.3542003631591,
    "lon": -82.472900390625
  },
  {
    "country": "United States",
    "state": "Montana",
    "city": "Butte",
    "name": "Bert Mooney Airport",
    "icao": "KBTM",
    "lat": 45.9547996520996,
    "lon": -112.497001647949
  },
  {
    "country": "United States",
    "state": "Illinois",
    "city": "Decatur",
    "name": "Decatur Airport",
    "icao": "KDEC",
    "lat": 39.8345985412597,
    "lon": -88.8656997680664
  },
  {
    "country": "United States",
    "state": "New York",
    "city": "Massena",
    "name": "Massena International Richards Field",
    "icao": "KMSS",
    "lat": 44.9357986450195,
    "lon": -74.8455963134765
  },
  {
    "country": "United States",
    "state": "Kansas",
    "city": "Liberal",
    "name": "Liberal Mid-America Regional Airport",
    "icao": "KLBL",
    "lat": 37.0442009,
    "lon": -100.9599991
  },
  {
    "country": "United States",
    "state": "Ohio",
    "city": "Dayton",
    "name": "Wright-Patterson Air Force Base",
    "icao": "KFFO",
    "lat": 39.8260993958,
    "lon": -84.0483016968
  },
  {
    "country": "United States",
    "state": "Texas",
    "city": "Temple",
    "name": "Draughon Miller Central Texas Regional Airport",
    "icao": "KTPL",
    "lat": 31.1525001525878,
    "lon": -97.4077987670898
  },
  {
    "country": "United States",
    "state": "Illinois",
    "city": "Alton/St Louis",
    "name": "St Louis Regional Airport",
    "icao": "KALN",
    "lat": 38.8903007506999,
    "lon": -90.0459976196
  },
  {
    "country": "United States",
    "state": "New York",
    "city": "Schenectady",
    "name": "Schenectady County Airport",
    "icao": "KSCH",
    "lat": 42.852500915527,
    "lon": -73.928901672363
  },
  {
    "country": "United States",
    "state": "Ohio",
    "city": "Akron",
    "name": "Akron Executive Airport",
    "icao": "KAKR",
    "lat": 41.037498,
    "lon": -81.466904
  },
  {
    "country": "United States",
    "state": "Kansas",
    "city": "Hays",
    "name": "Hays Regional Airport",
    "icao": "KHYS",
    "lat": 38.84220123,
    "lon": -99.27320099
  },
  {
    "country": "United States",
    "state": "Texas",
    "city": "Paris",
    "name": "Cox Field",
    "icao": "KPRX",
    "lat": 33.636600494385,
    "lon": -95.450798034668
  },
  {
    "country": "United States",
    "state": "Utah",
    "city": "Vernal",
    "name": "Vernal Regional Airport",
    "icao": "KVEL",
    "lat": 40.4408989,
    "lon": -109.5100021
  },
  {
    "country": "United States",
    "state": "Nevada",
    "city": "Winnemucca",
    "name": "Winnemucca Municipal Airport",
    "icao": "KWMC",
    "lat": 40.8965988159,
    "lon": -117.805999756
  },
  {
    "country": "United States",
    "state": "Texas",
    "city": "Brownwood",
    "name": "Brownwood Regional Airport",
    "icao": "KBWD",
    "lat": 31.7936000823999,
    "lon": -98.9564971924
  },
  {
    "country": "United States",
    "state": "Idaho",
    "city": "Driggs",
    "name": "Driggs Reed Memorial Airport",
    "icao": "KDIJ",
    "lat": 43.742401,
    "lon": -111.098
  },
  {
    "country": "United States",
    "state": "Maryland",
    "city": "Gaithersburg",
    "name": "Montgomery County Airpark",
    "icao": "KGAI",
    "lat": 39.1683006286999,
    "lon": -77.1660003662
  },
  {
    "country": "United States",
    "state": "Texas",
    "city": "Houston",
    "name": "Houston Executive Airport",
    "icao": "KTME",
    "lat": 29.8071994781494,
    "lon": -95.8979034423828
  },
  {
    "country": "United States",
    "state": "New Hampshire",
    "city": "Jaffrey",
    "name": "Jaffrey Airport Silver Ranch Airport",
    "icao": "KAFN",
    "lat": 42.8050994873,
    "lon": -72.0029983521
  },
  {
    "country": "United States",
    "state": "Colorado",
    "city": "La Junta",
    "name": "La Junta Municipal Airport",
    "icao": "KLHX",
    "lat": 38.04970169,
    "lon": -103.5090027
  },
  {
    "country": "United States",
    "state": "Texas",
    "city": "Mesquite",
    "name": "Mesquite Metro Airport",
    "icao": "KHQZ",
    "lat": 32.7470016479492,
    "lon": -96.530403137207
  },
  {
    "country": "United States",
    "state": "Florida",
    "city": "New Smyrna Beach",
    "name": "New Smyrna Beach Municipal Airport",
    "icao": "KEVB",
    "lat": 29.055700302124,
    "lon": -80.9488983154296
  },
  {
    "country": "United States",
    "state": "New York",
    "city": "Oneonta",
    "name": "Albert S Nader Regional Airport",
    "icao": "KN66",
    "lat": 42.5247,
    "lon": -75.0644
  },
  {
    "country": "United States",
    "state": "New Jersey",
    "city": "Pittstown",
    "name": "Sky Manor Airport",
    "icao": "KN40",
    "lat": 40.5662994384765,
    "lon": -74.9785995483398
  },
  {
    "country": "United States",
    "state": "Ohio",
    "city": "Port Clinton",
    "name": "Carl R Keller Field",
    "icao": "KPCW",
    "lat": 41.516300201416,
    "lon": -82.8686981201171
  },
  {
    "country": "United States",
    "state": "Texas",
    "city": "Rockwall",
    "name": "Rockwall Municipal Airport",
    "icao": "KF46",
    "lat": 32.9305992126464,
    "lon": -96.4355010986328
  },
  {
    "country": "United States",
    "state": "Michigan",
    "city": "Sault Ste Marie",
    "name": "Sault Ste Marie Municipal Sanderson Field",
    "icao": "KANJ",
    "lat": 46.47919846,
    "lon": -84.36840057
  },
  {
    "country": "United States",
    "state": "Arizona",
    "city": "St Johns",
    "name": "St Johns Industrial Air Park",
    "icao": "KSJN",
    "lat": 34.51860046,
    "lon": -109.3789978
  },
  {
    "country": "United States",
    "state": "Florida",
    "city": "Tampa",
    "name": "Tampa Executive Airport",
    "icao": "KVDF",
    "lat": 28.013999939,
    "lon": -82.3452987671
  },
  {
    "country": "United States",
    "state": "Virginia",
    "city": "Winchester",
    "name": "Winchester Regional Airport",
    "icao": "KOKV",
    "lat": 39.14350128,
    "lon": -78.14440155
  },
  {
    "country": "United States",
    "state": "Idaho",
    "city": "Yellow Pine",
    "name": "Johnson Creek Airport",
    "icao": "3U2",
    "lat": 44.912215,
    "lon": -115.485433
  },
  {
    "country": "United States",
    "state": "Arkansas",
    "city": "Harrison",
    "name": "Boone County Airport",
    "icao": "KHRO",
    "lat": 36.2615013122558,
    "lon": -93.1547012329101
  },
  {
    "country": "United States",
    "state": "Alabama",
    "city": "Muscle Shoals",
    "name": "Northwest Alabama Regional Airport",
    "icao": "KMSL",
    "lat": 34.74530029,
    "lon": -87.61019897
  },
  {
    "country": "United States",
    "state": "Georgia",
    "city": "Valdosta",
    "name": "Valdosta Regional Airport",
    "icao": "KVLD",
    "lat": 30.7824993133544,
    "lon": -83.2767028808593
  },
  {
    "country": "United States",
    "state": "California",
    "city": "Fairfield",
    "name": "Travis Air Force Base",
    "icao": "KSUU",
    "lat": 38.262699127197,
    "lon": -121.92700195312
  },
  {
    "country": "United States",
    "state": "Indiana",
    "city": "Lafayette",
    "name": "Purdue University Airport",
    "icao": "KLAF",
    "lat": 40.4123001098632,
    "lon": -86.936897277832
  },
  {
    "country": "United States",
    "state": "Indiana",
    "city": "Terre Haute",
    "name": "Terre Haute Regional Airport, Hulman Field",
    "icao": "KHUF",
    "lat": 39.4515,
    "lon": -87.307602
  },
  {
    "country": "United States",
    "state": "Michigan",
    "city": "Jackson",
    "name": "Jackson County Reynolds Field",
    "icao": "KJXN",
    "lat": 42.2597999573,
    "lon": -84.4593963623
  },
  {
    "country": "United States",
    "state": "Texas",
    "city": "Del Rio",
    "name": "Del Rio International Airport",
    "icao": "KDRT",
    "lat": 29.3742008209,
    "lon": -100.927001953
  },
  {
    "country": "United States",
    "state": "North Carolina",
    "city": "Kinston",
    "name": "Kinston Regional Jetport At Stallings Field",
    "icao": "KISO",
    "lat": 35.331401825,
    "lon": -77.6088027954
  },
  {
    "country": "United States",
    "state": "Utah",
    "city": "Logan",
    "name": "Logan-Cache Airport",
    "icao": "KLGU",
    "lat": 41.7911987305,
    "lon": -111.851997375
  },
  {
    "country": "United States",
    "state": "California",
    "city": "Agua Dulce",
    "name": "Agua Dulce Airpark",
    "icao": "KL70",
    "lat": 34.504199981689,
    "lon": -118.31300354004
  },
  {
    "country": "United States",
    "state": "Florida",
    "city": "Bartow",
    "name": "Bartow Executive Airport",
    "icao": "KBOW",
    "lat": 27.943399,
    "lon": -81.783401
  },
  {
    "country": "United States",
    "state": "Maryland",
    "city": "Cambridge",
    "name": "Cambridge Dorchester Airport",
    "icao": "KCGE",
    "lat": 38.53929901,
    "lon": -76.03040314
  },
  {
    "country": "United States",
    "state": "California",
    "city": "Compton",
    "name": "Compton Woodley Airport",
    "icao": "KCPM",
    "lat": 33.8899993896,
    "lon": -118.244003296
  },
  {
    "country": "United States",
    "state": "Ohio",
    "city": "Dayton",
    "name": "Greene County-Lewis A. Jackson Regional Airport",
    "icao": "I19",
    "lat": 39.6916999817,
    "lon": -83.990196228
  },
  {
    "country": "United States",
    "state": "Florida",
    "city": "Everglades",
    "name": "Everglades Airpark",
    "icao": "X01",
    "lat": 25.8486995697,
    "lon": -81.3900985718
  },
  {
    "country": "United States",
    "state": "Oregon",
    "city": "Hood River",
    "name": "Ken Jernstedt Airfield",
    "icao": "K4S2",
    "lat": 45.67259979,
    "lon": -121.5360031
  },
  {
    "country": "United States",
    "state": "Missouri",
    "city": "Jefferson City",
    "name": "Jefferson City Memorial Airport",
    "icao": "KJEF",
    "lat": 38.5912017822,
    "lon": -92.1560974121
  },
  {
    "country": "United States",
    "state": "Missouri",
    "city": "Kennett",
    "name": "Kennett Memorial Airport",
    "icao": "KTKX",
    "lat": 36.2258987427,
    "lon": -90.0365982056
  },
  {
    "country": "United States",
    "state": "New York",
    "city": "Kingston",
    "name": "Kingston-Ulster Airport",
    "icao": "K20N",
    "lat": 41.9852981567,
    "lon": -73.9641036987
  },
  {
    "country": "United States",
    "state": "Nevada",
    "city": "Mesquite",
    "name": "Mesquite Airport",
    "icao": "K67L",
    "lat": 36.83499908,
    "lon": -114.0550003
  },
  {
    "country": "United States",
    "state": "Texas",
    "city": "Mineral Wells",
    "name": "Mineral Wells Regional Airport",
    "icao": "KMWL",
    "lat": 32.781601,
    "lon": -98.060204
  },
  {
    "country": "United States",
    "state": "Connecticut",
    "city": "Oxford",
    "name": "Waterbury Oxford Airport",
    "icao": "KOXC",
    "lat": 41.47859954834,
    "lon": -73.135200500488
  },
  {
    "country": "United States",
    "state": "Texas",
    "city": "Plainview",
    "name": "Hale County Airport",
    "icao": "KPVW",
    "lat": 34.168098449707,
    "lon": -101.71700286865
  },
  {
    "country": "United States",
    "state": "Minnesota",
    "city": "Red Wing",
    "name": "Red Wing Regional Airport",
    "icao": "KRGK",
    "lat": 44.589401,
    "lon": -92.485001
  },
  {
    "country": "United States",
    "state": "Texas",
    "city": "San Antonio",
    "name": "Boerne Stage Field",
    "icao": "K5C1",
    "lat": 29.7238998413085,
    "lon": -98.6946029663086
  },
  {
    "country": "United States",
    "state": "Colorado",
    "city": "Steamboat Springs",
    "name": "Steamboat Springs Bob Adams Field",
    "icao": "KSBS",
    "lat": 40.5163002,
    "lon": -106.8659973
  },
  {
    "country": "United States",
    "state": "Colorado",
    "city": "Telluride",
    "name": "Telluride Regional Airport",
    "icao": "KTEX",
    "lat": 37.9538002,
    "lon": -107.9079971
  },
  {
    "country": "United States",
    "state": "California",
    "city": "Victorville",
    "name": "Southern California Logistics Airport",
    "icao": "KVCV",
    "lat": 34.5974998473999,
    "lon": -117.383003235
  },
  {
    "country": "United States",
    "state": "Illinois",
    "city": "Chicago",
    "name": "Chicago Meigs Airport",
    "icao": "KCGX",
    "lat": 41.8587989807128,
    "lon": -87.6079025268554
  },
  {
    "country": "United States",
    "state": "Tennessee",
    "city": "Millington",
    "name": "Millington-Memphis Airport",
    "icao": "KNQA",
    "lat": 35.356701,
    "lon": -89.8703
  },
  {
    "country": "United States",
    "state": "Maryland",
    "city": "Fort Meade(Odenton)",
    "name": "Tipton Airport",
    "icao": "KFME",
    "lat": 39.0853996276999,
    "lon": -76.7593994141
  },
  {
    "country": "United States",
    "state": "Washington",
    "city": "Auburn",
    "name": "Auburn Municipal Airport",
    "icao": "KS50",
    "lat": 47.327702,
    "lon": -122.226997
  },
  {
    "country": "United States",
    "state": "Texas",
    "city": "Austin",
    "name": "Lakeway Airpark",
    "icao": "K3R9",
    "lat": 30.3575000762939,
    "lon": -97.9944992065429
  },
  {
    "country": "United States",
    "state": "Missouri",
    "city": "Branson / Hollister",
    "name": "M. Graham Clark Downtown Airport",
    "icao": "KPLK",
    "lat": 36.62590027,
    "lon": -93.22889709
  },
  {
    "country": "United States",
    "state": "California",
    "city": "California City",
    "name": "California City Municipal Airport",
    "icao": "KL71",
    "lat": 35.1511993408203,
    "lon": -118.016998291015
  },
  {
    "country": "United States",
    "state": "Florida",
    "city": "Clearwater",
    "name": "Clearwater Air Park",
    "icao": "KCLW",
    "lat": 27.9766998291,
    "lon": -82.7586975098
  },
  {
    "country": "United States",
    "state": "Iowa",
    "city": "Davenport",
    "name": "Davenport Municipal Airport",
    "icao": "KDVN",
    "lat": 41.61029816,
    "lon": -90.58830261
  },
  {
    "country": "United States",
    "state": "Florida",
    "city": "Fernandina Beach",
    "name": "Fernandina Beach Municipal Airport",
    "icao": "K55J",
    "lat": 30.611799,
    "lon": -81.461197
  },
  {
    "country": "United States",
    "state": "New York",
    "city": "Fulton",
    "name": "Oswego County Airport",
    "icao": "KFZY",
    "lat": 43.3507995605468,
    "lon": -76.3880996704101
  },
  {
    "country": "United States",
    "state": "California",
    "city": "Groveland",
    "name": "Pine Mountain Lake Airport",
    "icao": "KE45",
    "lat": 37.861698150635,
    "lon": -120.17800140381
  },
  {
    "country": "United States",
    "state": "Utah",
    "city": "Heber",
    "name": "Heber Valley Airport",
    "icao": "K36U",
    "lat": 40.4818,
    "lon": -111.429001
  },
  {
    "country": "United States",
    "state": "California",
    "city": "Jackson",
    "name": "Westover Field Amador County Airport",
    "icao": "KO70",
    "lat": 38.3768005371,
    "lon": -120.793998718
  },
  {
    "country": "United States",
    "state": "Florida",
    "city": "Lake City",
    "name": "Lake City Gateway Airport",
    "icao": "KLCQ",
    "lat": 30.1819992065,
    "lon": -82.5768966675
  },
  {
    "country": "United States",
    "state": "New Jersey",
    "city": "Lincoln Park",
    "name": "Lincoln Park Airport",
    "icao": "N07",
    "lat": 40.9474983215332,
    "lon": -74.3144989013671
  },
  {
    "country": "United States",
    "state": "Tennessee",
    "city": "Memphis",
    "name": "General Dewitt Spain Airport",
    "icao": "KM01",
    "lat": 35.20069885,
    "lon": -90.05400085
  },
  {
    "country": "United States",
    "state": "New York",
    "city": "Monticello",
    "name": "Sullivan County International Airport",
    "icao": "KMSV",
    "lat": 41.701596,
    "lon": -74.794997
  },
  {
    "country": "United States",
    "state": "Nebraska",
    "city": "Omaha",
    "name": "Millard Airport",
    "icao": "KMLE",
    "lat": 41.1959991455078,
    "lon": -96.1119995117187
  },
  {
    "country": "United States",
    "state": "Missouri",
    "city": "Osage Beach",
    "name": "Grand Glaize Osage Beach Airport",
    "icao": "KK15",
    "lat": 38.1105003357,
    "lon": -92.6804962158
  },
  {
    "country": "United States",
    "state": "New Jersey",
    "city": "Princeton/Rocky Hill",
    "name": "Princeton Airport",
    "icao": "K39N",
    "lat": 40.3992004395,
    "lon": -74.6588973999
  },
  {
    "country": "United States",
    "state": "Missouri",
    "city": "Rolla/Vichy",
    "name": "Rolla National Airport",
    "icao": "KVIH",
    "lat": 38.1273994446,
    "lon": -91.7695007324
  },
  {
    "country": "United States",
    "state": "Utah",
    "city": "Salt Lake City",
    "name": "South Valley Regional Airport",
    "icao": "KU42",
    "lat": 40.61949921,
    "lon": -111.9929962
  },
  {
    "country": "United States",
    "state": "Wisconsin",
    "city": "Sheboygan",
    "name": "Sheboygan County Memorial Airport",
    "icao": "KSBM",
    "lat": 43.76959991,
    "lon": -87.85140228
  },
  {
    "country": "United States",
    "state": "Louisiana",
    "city": "Shreveport",
    "name": "Shreveport Downtown Airport",
    "icao": "KDTN",
    "lat": 32.5401992798,
    "lon": -93.7450027466
  },
  {
    "country": "United States",
    "state": "Alaska",
    "city": "Talkeetna",
    "name": "Talkeetna Airport",
    "icao": "PATK",
    "lat": 62.320499420166,
    "lon": -150.09399414062
  },
  {
    "country": "United States",
    "state": "California",
    "city": "Twentynine Palms",
    "name": "Twentynine Palms Airport",
    "icao": "KTNP",
    "lat": 34.13159943,
    "lon": -115.9459991
  },
  {
    "country": "United States",
    "state": "Washington",
    "city": "Vancouver",
    "name": "Pearson Field",
    "icao": "KVUO",
    "lat": 45.620499,
    "lon": -122.655998
  },
  {
    "country": "United States",
    "state": "Florida",
    "city": "West Palm Beach",
    "name": "North Palm Beach County General Aviation Airport",
    "icao": "KF45",
    "lat": 26.84440041,
    "lon": -80.22129822
  },
  {
    "country": "United States",
    "state": "Kansas",
    "city": "Dodge City",
    "name": "Dodge City Regional Airport",
    "icao": "KDDC",
    "lat": 37.7634010314941,
    "lon": -99.9655990600586
  },
  {
    "country": "United States",
    "state": "Arizona",
    "city": "Fort Huachuca / Sierra Vista",
    "name": "Sierra Vista Municipal Airport / Libby Army Air Field",
    "icao": "KFHU",
    "lat": 31.587383,
    "lon": -110.348225
  },
  {
    "country": "United States",
    "state": "Minnesota",
    "city": "International Falls",
    "name": "Falls International Airport",
    "icao": "KINL",
    "lat": 48.5662002563476,
    "lon": -93.4030990600586
  },
  {
    "country": "United States",
    "state": "Wyoming",
    "city": "Sheridan",
    "name": "Sheridan County Airport",
    "icao": "KSHR",
    "lat": 44.7691993713378,
    "lon": -106.980003356933
  },
  {
    "country": "United States",
    "state": "Washington",
    "city": "Walla Walla",
    "name": "Walla Walla Regional Airport",
    "icao": "KALW",
    "lat": 46.09489822,
    "lon": -118.288002
  },
  {
    "country": "United States",
    "state": "Illinois",
    "city": "Belleville",
    "name": "Scott AFB/Midamerica Airport",
    "icao": "KBLV",
    "lat": 38.5452,
    "lon": -89.835197
  },
  {
    "country": "United States",
    "state": "Alaska",
    "city": "Sitka",
    "name": "Sitka Rocky Gutierrez Airport",
    "icao": "PASI",
    "lat": 57.0471000671386,
    "lon": -135.361999511718
  },
  {
    "country": "United States",
    "state": "Mississippi",
    "city": "Greenville",
    "name": "Mid Delta Regional Airport",
    "icao": "KGLH",
    "lat": 33.4828987121582,
    "lon": -90.9856033325195
  },
  {
    "country": "United States",
    "state": "New Mexico",
    "city": "Las Cruces",
    "name": "Las Cruces International Airport",
    "icao": "KLRU",
    "lat": 32.2893981933593,
    "lon": -106.921997070312
  },
  {
    "country": "United States",
    "state": "West Virginia",
    "city": "Martinsburg",
    "name": "Eastern WV Regional Airport/Shepherd Field",
    "icao": "KMRB",
    "lat": 39.40190125,
    "lon": -77.98459625
  },
  {
    "country": "United States",
    "state": "California",
    "city": "San Diego",
    "name": "Miramar Marine Corps Air Station - Mitscher Field",
    "icao": "KNKX",
    "lat": 32.86840057,
    "lon": -117.1429977
  },
  {
    "country": "United States",
    "state": "Arkansas",
    "city": "Fayetteville",
    "name": "Drake Field",
    "icao": "KFYV",
    "lat": 36.0051002502441,
    "lon": -94.1700973510742
  },
  {
    "country": "United States",
    "state": "Oklahoma",
    "city": "Mc Alester",
    "name": "Mc Alester Regional Airport",
    "icao": "KMLC",
    "lat": 34.882401,
    "lon": -95.783501
  },
  {
    "country": "United States",
    "state": "Minnesota",
    "city": "Bemidji",
    "name": "Bemidji Regional Airport",
    "icao": "KBJI",
    "lat": 47.50939941,
    "lon": -94.93370056
  },
  {
    "country": "United States",
    "state": "Texas",
    "city": "Dalhart",
    "name": "Dalhart Municipal Airport",
    "icao": "KDHT",
    "lat": 36.0225982666,
    "lon": -102.54699707
  },
  {
    "country": "United States",
    "state": "Texas",
    "city": "Fort Stockton",
    "name": "Fort Stockton Pecos County Airport",
    "icao": "KFST",
    "lat": 30.9157009125,
    "lon": -102.916000366
  },
  {
    "country": "United States",
    "state": "North Carolina",
    "city": "Greenville",
    "name": "Pitt Greenville Airport",
    "icao": "KPGV",
    "lat": 35.6352005,
    "lon": -77.38529968
  },
  {
    "country": "United States",
    "state": "Washington",
    "city": "Moses Lake",
    "name": "Grant County International Airport",
    "icao": "KMWH",
    "lat": 47.20769882,
    "lon": -119.3199997
  },
  {
    "country": "United States",
    "state": "New Jersey",
    "city": "Andover",
    "name": "Aeroflex-Andover Airport",
    "icao": "K12N",
    "lat": 41.0085983276,
    "lon": -74.7379989624
  },
  {
    "country": "United States",
    "state": "Virginia",
    "city": "Blacksburg",
    "name": "Virginia Tech Montgomery Executive Airport",
    "icao": "KBCB",
    "lat": 37.2075996398999,
    "lon": -80.4077987671
  },
  {
    "country": "United States",
    "state": "Illinois",
    "city": "Bolingbrook",
    "name": "Bolingbrook's Clow International Airport",
    "icao": "K1C5",
    "lat": 41.6959991455,
    "lon": -88.1292037963999
  },
  {
    "country": "United States",
    "state": "Texas",
    "city": "Burnet",
    "name": "Burnet Municipal Kate Craddock Field",
    "icao": "KBMQ",
    "lat": 30.738899230957,
    "lon": -98.2386016845703
  },
  {
    "country": "United States",
    "state": "Georgia",
    "city": "Canton",
    "name": "Cherokee County Regional Airport",
    "icao": "K47A",
    "lat": 34.3106,
    "lon": -84.423897
  },
  {
    "country": "United States",
    "state": "Massachusetts",
    "city": "Chatham",
    "name": "Chatham Municipal Airport",
    "icao": "KCQX",
    "lat": 41.6884002685546,
    "lon": -69.989501953125
  },
  {
    "country": "United States",
    "state": "Colorado",
    "city": "Colorado Springs",
    "name": "Meadow Lake Airport",
    "icao": "K00V",
    "lat": 38.9458007812,
    "lon": -104.569999695
  },
  {
    "country": "United States",
    "state": "Washington",
    "city": "Ellensburg",
    "name": "Bowers Field",
    "icao": "KELN",
    "lat": 47.03300095,
    "lon": -120.5309982
  },
  {
    "country": "United States",
    "state": "Virginia",
    "city": "Fredericksburg",
    "name": "Shannon Airport",
    "icao": "KEZF",
    "lat": 38.2667999267578,
    "lon": -77.4492034912109
  },
  {
    "country": "United States",
    "state": "Kansas",
    "city": "Great Bend",
    "name": "Great Bend Municipal Airport",
    "icao": "KGBD",
    "lat": 38.3442993164,
    "lon": -98.8591995239
  },
  {
    "country": "United States",
    "state": "California",
    "city": "Hesperia",
    "name": "Hesperia Airport",
    "icao": "KL26",
    "lat": 34.3772010803222,
    "lon": -117.316001892089
  },
  {
    "country": "United States",
    "state": "Georgia",
    "city": "Jesup",
    "name": "Jesup Wayne County Airport",
    "icao": "KJES",
    "lat": 31.55400085,
    "lon": -81.88249969
  },
  {
    "country": "United States",
    "state": "Georgia",
    "city": "Lagrange",
    "name": "LaGrange Callaway Airport",
    "icao": "KLGC",
    "lat": 33.0089,
    "lon": -85.072601
  },
  {
    "country": "United States",
    "state": "Arizona",
    "city": "Marana",
    "name": "Pinal Airpark",
    "icao": "KMZJ",
    "lat": 32.5106010437,
    "lon": -111.32800293
  },
  {
    "country": "United States",
    "state": "Ohio",
    "city": "Marion",
    "name": "Marion Municipal Airport",
    "icao": "KMNN",
    "lat": 40.6161994934,
    "lon": -83.0634994507
  },
  {
    "country": "United States",
    "state": "Utah",
    "city": "Milford",
    "name": "Milford Municipal-Ben and Judy Briscoe Field",
    "icao": "KMLF",
    "lat": 38.42660141,
    "lon": -113.012001
  },
  {
    "country": "United States",
    "state": "Massachusetts",
    "city": "Newburyport",
    "name": "Plum Island Airport",
    "icao": "2B2",
    "lat": 42.7958984375,
    "lon": -70.8412017822265
  },
  {
    "country": "United States",
    "state": "Mississippi",
    "city": "Olive Branch",
    "name": "Olive Branch Airport",
    "icao": "KOLV",
    "lat": 34.9786987305,
    "lon": -89.7869033813
  },
  {
    "country": "United States",
    "state": "Arizona",
    "city": "Peach Springs",
    "name": "Grand Canyon West Airport",
    "icao": "K1G4",
    "lat": 35.990398407,
    "lon": -113.816001892
  },
  {
    "country": "United States",
    "state": "Illinois",
    "city": "Poplar Grove",
    "name": "Poplar Grove Airport",
    "icao": "KC77",
    "lat": 42.322898864746,
    "lon": -88.8363037109375
  },
  {
    "country": "United States",
    "state": "Pennsylvania",
    "city": "Selinsgrove",
    "name": "Penn Valley Airport",
    "icao": "KSEG",
    "lat": 40.820598602295,
    "lon": -76.863899230957
  },
  {
    "country": "United States",
    "state": "Arizona",
    "city": "Show Low",
    "name": "Show Low Regional Airport",
    "icao": "KSOW",
    "lat": 34.265499115,
    "lon": -110.005996704
  },
  {
    "country": "United States",
    "state": "Minnesota",
    "city": "St Paul",
    "name": "Lake Elmo Airport",
    "icao": "K21D",
    "lat": 44.99750137,
    "lon": -92.85569763
  },
  {
    "country": "United States",
    "state": "Florida",
    "city": "Tampa",
    "name": "Peter O Knight Airport",
    "icao": "KTPF",
    "lat": 27.915599822998,
    "lon": -82.44930267334
  },
  {
    "country": "United States",
    "state": "New Jersey",
    "city": "Toms River",
    "name": "Ocean County Airport",
    "icao": "KMJX",
    "lat": 39.92750168,
    "lon": -74.29239655
  },
  {
    "country": "United States",
    "state": "Indiana",
    "city": "Warsaw",
    "name": "Warsaw Municipal Airport",
    "icao": "KASW",
    "lat": 41.2747001647949,
    "lon": -85.840103149414
  },
  {
    "country": "United States",
    "state": "Hawaii",
    "city": "Kaunakakai",
    "name": "Molokai Airport",
    "icao": "PHMK",
    "lat": 21.1529006958007,
    "lon": -157.095993041992
  },
  {
    "country": "United States",
    "state": "Washington",
    "city": "Tacoma",
    "name": "McChord Air Force Base",
    "icao": "KTCM",
    "lat": 47.1376991272,
    "lon": -122.475997925
  },
  {
    "country": "United States",
    "state": "Minnesota",
    "city": "Alexandria",
    "name": "Chandler Field",
    "icao": "KAXN",
    "lat": 45.8662986755,
    "lon": -95.3946990967
  },
  {
    "country": "United States",
    "state": "Illinois",
    "city": "Carbondale/Murphysboro",
    "name": "Southern Illinois Airport",
    "icao": "KMDH",
    "lat": 37.7780990600585,
    "lon": -89.2519989013671
  },
  {
    "country": "United States",
    "state": "North Dakota",
    "city": "Dickinson",
    "name": "Dickinson Theodore Roosevelt Regional Airport",
    "icao": "KDIK",
    "lat": 46.7974014282,
    "lon": -102.802001953
  },
  {
    "country": "United States",
    "state": "North Carolina",
    "city": "Elizabeth City",
    "name": "Elizabeth City Regional Airport & Coast Guard Air Station",
    "icao": "KECG",
    "lat": 36.26060104,
    "lon": -76.17459869
  },
  {
    "country": "United States",
    "state": "Nebraska",
    "city": "Norfolk",
    "name": "Karl Stefan Memorial Airport",
    "icao": "KOFK",
    "lat": 41.985500335693,
    "lon": -97.435096740723
  },
  {
    "country": "United States",
    "state": "Pennsylvania",
    "city": "Allentown",
    "name": "Allentown Queen City Municipal Airport",
    "icao": "KXLL",
    "lat": 40.5703010559,
    "lon": -75.4882965087999
  },